id,name,state_id,state_code,state_name,country_id,country_code,country_name,latitude,longitude,wikiDataId
276,Abaji,293,FC,Federal Capital Territory,161,NG,Nigeria,8.475556,6.943333,Q1053237
277,Abuja,293,FC,Federal Capital Territory,161,NG,Nigeria,9.06666667,7.48333333,Q3787
278,Bwari,293,FC,Federal Capital Territory,161,NG,Nigeria,9.280278,7.38,Q5003670
279,Gwagwalada,293,FC,Federal Capital Territory,161,NG,Nigeria,8.939167,7.075833,Q2285343
280,Kuje,293,FC,Federal Capital Territory,161,NG,Nigeria,8.88222222,7.22027778,Q6442341
281,Kwali,293,FC,Federal Capital Territory,161,NG,Nigeria,8.839722,7.054167,Q6450057
