[
    {
        "id": 142,
        "name": "Abadam",
        "state_id": 307,
        "state_code": "BO",
        "state_name": "Borno",
        "country_id": 161,
        "country_code": "NG",
        "country_name": "Nigeria",
        "latitude": 13.610953,
        "longitude": 13.277664,
        "wikiDataId": "Q3509646"
    },
    {
        "id": 143,
        "name": "Askira/Uba",
        "state_id": 307,
        "state_code": "BO",
        "state_name": "Borno",
        "country_id": 161,
        "country_code": "NG",
        "country_name": "Nigeria",
        "latitude": 10.654724,
        "longitude": 12.907777,
        "wikiDataId": "Q3509469"
    },
    {
        "id": 144,
        "name": "Bama",
        "state_id": 307,
        "state_code": "BO",
        "state_name": "Borno",
        "country_id": 161,
        "country_code": "NG",
        "country_name": "Nigeria",
        "latitude": 11.51888889,
        "longitude": 13.68416667,
        "wikiDataId": "Q3331583"
    },
    {
        "id": 145,
        "name": "Bayo",
        "state_id": 307,
        "state_code": "BO",
        "state_name": "Borno",
        "country_id": 161,
        "country_code": "NG",
        "country_name": "Nigeria",
        "latitude": 10.441838,
        "longitude": 11.704237,
        "wikiDataId": "Q4874676"
    },
    {
        "id": 146,
        "name": "Biu",
        "state_id": 307,
        "state_code": "BO",
        "state_name": "Borno",
        "country_id": 161,
        "country_code": "NG",
        "country_name": "Nigeria",
        "latitude": 10.6111,
        "longitude": 12.195,
        "wikiDataId": "Q2904965"
    },
    {
        "id": 147,
        "name": "Chibok",
        "state_id": 307,
        "state_code": "BO",
        "state_name": "Borno",
        "country_id": 161,
        "country_code": "NG",
        "country_name": "Nigeria",
        "latitude": 10.86972222,
        "longitude": 12.84666667,
        "wikiDataId": "Q5095348"
    },
    {
        "id": 148,
        "name": "Damboa",
        "state_id": 307,
        "state_code": "BO",
        "state_name": "Borno",
        "country_id": 161,
        "country_code": "NG",
        "country_name": "Nigeria",
        "latitude": 11.15,
        "longitude": 12.75,
        "wikiDataId": "Q5212096"
    },
    {
        "id": 149,
        "name": "Dikwa",
        "state_id": 307,
        "state_code": "BO",
        "state_name": "Borno",
        "country_id": 161,
        "country_code": "NG",
        "country_name": "Nigeria",
        "latitude": 12.0239,
        "longitude": 13.9158,
        "wikiDataId": "Q5276586"
    },
    {
        "id": 150,
        "name": "Gubio",
        "state_id": 307,
        "state_code": "BO",
        "state_name": "Borno",
        "country_id": 161,
        "country_code": "NG",
        "country_name": "Nigeria",
        "latitude": 12.4975,
        "longitude": 12.78,
        "wikiDataId": "Q5610675"
    },
    {
        "id": 151,
        "name": "Guzamala",
        "state_id": 307,
        "state_code": "BO",
        "state_name": "Borno",
        "country_id": 161,
        "country_code": "NG",
        "country_name": "Nigeria",
        "latitude": 12.94656,
        "longitude": 13.176822,
        "wikiDataId": "Q5622902"
    },
    {
        "id": 152,
        "name": "Gwoza",
        "state_id": 307,
        "state_code": "BO",
        "state_name": "Borno",
        "country_id": 161,
        "country_code": "NG",
        "country_name": "Nigeria",
        "latitude": 11.086111,
        "longitude": 13.691389,
        "wikiDataId": "Q5623719"
    },
    {
        "id": 153,
        "name": "Hawul",
        "state_id": 307,
        "state_code": "BO",
        "state_name": "Borno",
        "country_id": 161,
        "country_code": "NG",
        "country_name": "Nigeria",
        "latitude": 10.451308,
        "longitude": 12.116581,
        "wikiDataId": "Q5685688"
    },
    {
        "id": 154,
        "name": "Jere",
        "state_id": 307,
        "state_code": "BO",
        "state_name": "Borno",
        "country_id": 161,
        "country_code": "NG",
        "country_name": "Nigeria",
        "latitude": 11.89912,
        "longitude": 13.29155,
        "wikiDataId": "Q13140477"
    },
    {
        "id": 155,
        "name": "Kaga",
        "state_id": 307,
        "state_code": "BO",
        "state_name": "Borno",
        "country_id": 161,
        "country_code": "NG",
        "country_name": "Nigeria",
        "latitude": 11.810333,
        "longitude": 12.494153,
        "wikiDataId": "Q6346306"
    },
    {
        "id": 156,
        "name": "Kala/Balge",
        "state_id": 307,
        "state_code": "BO",
        "state_name": "Borno",
        "country_id": 161,
        "country_code": "NG",
        "country_name": "Nigeria",
        "latitude": 12.268627,
        "longitude": 14.464896,
        "wikiDataId": "Q6349919"
    },
    {
        "id": 157,
        "name": "Konduga",
        "state_id": 307,
        "state_code": "BO",
        "state_name": "Borno",
        "country_id": 161,
        "country_code": "NG",
        "country_name": "Nigeria",
        "latitude": 11.65166667,
        "longitude": 13.41944444,
        "wikiDataId": "Q6429051"
    },
    {
        "id": 158,
        "name": "Kukawa",
        "state_id": 307,
        "state_code": "BO",
        "state_name": "Borno",
        "country_id": 161,
        "country_code": "NG",
        "country_name": "Nigeria",
        "latitude": 12.91666667,
        "longitude": 13.56666667,
        "wikiDataId": "Q128665"
    },
    {
        "id": 159,
        "name": "Kwaya Kusar",
        "state_id": 307,
        "state_code": "BO",
        "state_name": "Borno",
        "country_id": 161,
        "country_code": "NG",
        "country_name": "Nigeria",
        "latitude": 11.817338,
        "longitude": 13.120352,
        "wikiDataId": "Q6450273"
    },
    {
        "id": 160,
        "name": "Mafa",
        "state_id": 307,
        "state_code": "BO",
        "state_name": "Borno",
        "country_id": 161,
        "country_code": "NG",
        "country_name": "Nigeria",
        "latitude": 11.92583333,
        "longitude": 13.60555556,
        "wikiDataId": "Q6729409"
    },
    {
        "id": 161,
        "name": "Magumeri",
        "state_id": 307,
        "state_code": "BO",
        "state_name": "Borno",
        "country_id": 161,
        "country_code": "NG",
        "country_name": "Nigeria",
        "latitude": 12.115657,
        "longitude": 12.83101,
        "wikiDataId": "Q6732527"
    },
    {
        "id": 162,
        "name": "Maiduguri",
        "state_id": 307,
        "state_code": "BO",
        "state_name": "Borno",
        "country_id": 161,
        "country_code": "NG",
        "country_name": "Nigeria",
        "latitude": 11.83333333,
        "longitude": 13.15,
        "wikiDataId": "Q221436"
    },
    {
        "id": 163,
        "name": "Marte",
        "state_id": 307,
        "state_code": "BO",
        "state_name": "Borno",
        "country_id": 161,
        "country_code": "NG",
        "country_name": "Nigeria",
        "latitude": 12.364596,
        "longitude": 13.826741,
        "wikiDataId": "Q295517"
    },
    {
        "id": 164,
        "name": "Mobbar",
        "state_id": 307,
        "state_code": "BO",
        "state_name": "Borno",
        "country_id": 161,
        "country_code": "NG",
        "country_name": "Nigeria",
        "latitude": 13.103993,
        "longitude": 12.511041,
        "wikiDataId": "Q6886647"
    },
    {
        "id": 165,
        "name": "Monguno",
        "state_id": 307,
        "state_code": "BO",
        "state_name": "Borno",
        "country_id": 161,
        "country_code": "NG",
        "country_name": "Nigeria",
        "latitude": 12.68333333,
        "longitude": 13.6,
        "wikiDataId": "Q15043599"
    },
    {
        "id": 166,
        "name": "Ngala",
        "state_id": 307,
        "state_code": "BO",
        "state_name": "Borno",
        "country_id": 161,
        "country_code": "NG",
        "country_name": "Nigeria",
        "latitude": 12.371107,
        "longitude": 14.206223,
        "wikiDataId": "Q7021892"
    },
    {
        "id": 167,
        "name": "Nganzai",
        "state_id": 307,
        "state_code": "BO",
        "state_name": "Borno",
        "country_id": 161,
        "country_code": "NG",
        "country_name": "Nigeria",
        "latitude": 12.486253,
        "longitude": 13.209321,
        "wikiDataId": "Q7022015"
    },
    {
        "id": 168,
        "name": "Shani",
        "state_id": 307,
        "state_code": "BO",
        "state_name": "Borno",
        "country_id": 161,
        "country_code": "NG",
        "country_name": "Nigeria",
        "latitude": 10.183889,
        "longitude": 11.963889,
        "wikiDataId": "Q7488621"
    }
]