[
    {
        "id": 705,
        "name": "Binji",
        "state_id": 292,
        "state_code": "SO",
        "state_name": "Sokoto",
        "country_id": 161,
        "country_code": "NG",
        "country_name": "Nigeria",
        "latitude": 13.21666667,
        "longitude": 4.91666667,
        "wikiDataId": "Q4914402"
    },
    {
        "id": 706,
        "name": "Bodinga",
        "state_id": 292,
        "state_code": "SO",
        "state_name": "Sokoto",
        "country_id": 161,
        "country_code": "NG",
        "country_name": "Nigeria",
        "latitude": 12.88333333,
        "longitude": 5.16666667,
        "wikiDataId": "Q13140401"
    },
    {
        "id": 707,
        "name": "Dange/Shuni",
        "state_id": 292,
        "state_code": "SO",
        "state_name": "Sokoto",
        "country_id": 161,
        "country_code": "NG",
        "country_name": "Nigeria",
        "latitude": 12.85,
        "longitude": 5.35,
        "wikiDataId": "Q5215972"
    },
    {
        "id": 708,
        "name": "Gada",
        "state_id": 292,
        "state_code": "SO",
        "state_name": "Sokoto",
        "country_id": 161,
        "country_code": "NG",
        "country_name": "Nigeria",
        "latitude": 13.76666667,
        "longitude": 5.66666667,
        "wikiDataId": "Q5516271"
    },
    {
        "id": 709,
        "name": "Goronyo",
        "state_id": 292,
        "state_code": "SO",
        "state_name": "Sokoto",
        "country_id": 161,
        "country_code": "NG",
        "country_name": "Nigeria",
        "latitude": 13.45305556,
        "longitude": 5.67638889,
        "wikiDataId": "Q5586824"
    },
    {
        "id": 710,
        "name": "Gudu",
        "state_id": 292,
        "state_code": "SO",
        "state_name": "Sokoto",
        "country_id": 161,
        "country_code": "NG",
        "country_name": "Nigeria",
        "latitude": 13.46666667,
        "longitude": 4.43333333,
        "wikiDataId": "Q3331551"
    },
    {
        "id": 711,
        "name": "Gwadabawa",
        "state_id": 292,
        "state_code": "SO",
        "state_name": "Sokoto",
        "country_id": 161,
        "country_code": "NG",
        "country_name": "Nigeria",
        "latitude": 13.3697,
        "longitude": 5.23,
        "wikiDataId": "Q5623224"
    },
    {
        "id": 712,
        "name": "Illela",
        "state_id": 292,
        "state_code": "SO",
        "state_name": "Sokoto",
        "country_id": 161,
        "country_code": "NG",
        "country_name": "Nigeria",
        "latitude": 13.7325,
        "longitude": 5.30027778,
        "wikiDataId": "Q5999073"
    },
    {
        "id": 713,
        "name": "Isa",
        "state_id": 292,
        "state_code": "SO",
        "state_name": "Sokoto",
        "country_id": 161,
        "country_code": "NG",
        "country_name": "Nigeria",
        "latitude": 13.20027778,
        "longitude": 6.40722222,
        "wikiDataId": "Q6075662"
    },
    {
        "id": 714,
        "name": "Kware",
        "state_id": 292,
        "state_code": "SO",
        "state_name": "Sokoto",
        "country_id": 161,
        "country_code": "NG",
        "country_name": "Nigeria",
        "latitude": 13.21805556,
        "longitude": 5.26722222,
        "wikiDataId": "Q6450223"
    },
    {
        "id": 715,
        "name": "Rabah",
        "state_id": 292,
        "state_code": "SO",
        "state_name": "Sokoto",
        "country_id": 161,
        "country_code": "NG",
        "country_name": "Nigeria",
        "latitude": 13.11666667,
        "longitude": 5.51666667,
        "wikiDataId": "Q7278481"
    },
    {
        "id": 716,
        "name": "Sabon Birni",
        "state_id": 292,
        "state_code": "SO",
        "state_name": "Sokoto",
        "country_id": 161,
        "country_code": "NG",
        "country_name": "Nigeria",
        "latitude": 13.5611,
        "longitude": 6.325,
        "wikiDataId": "Q7396282"
    },
    {
        "id": 717,
        "name": "Shagari",
        "state_id": 292,
        "state_code": "SO",
        "state_name": "Sokoto",
        "country_id": 161,
        "country_code": "NG",
        "country_name": "Nigeria",
        "latitude": 12.63333333,
        "longitude": 5,
        "wikiDataId": "Q7461162"
    },
    {
        "id": 718,
        "name": "Silame",
        "state_id": 292,
        "state_code": "SO",
        "state_name": "Sokoto",
        "country_id": 161,
        "country_code": "NG",
        "country_name": "Nigeria",
        "latitude": 13.03333333,
        "longitude": 4.85,
        "wikiDataId": "Q7514068"
    },
    {
        "id": 719,
        "name": "Sokoto North",
        "state_id": 292,
        "state_code": "SO",
        "state_name": "Sokoto",
        "country_id": 161,
        "country_code": "NG",
        "country_name": "Nigeria",
        "latitude": 13.05,
        "longitude": 5.23333333,
        "wikiDataId": "Q7555307"
    },
    {
        "id": 720,
        "name": "Sokoto South",
        "state_id": 292,
        "state_code": "SO",
        "state_name": "Sokoto",
        "country_id": 161,
        "country_code": "NG",
        "country_name": "Nigeria",
        "latitude": 13.05,
        "longitude": 5.21666667,
        "wikiDataId": "Q7555313"
    },
    {
        "id": 721,
        "name": "Tambuwal",
        "state_id": 292,
        "state_code": "SO",
        "state_name": "Sokoto",
        "country_id": 161,
        "country_code": "NG",
        "country_name": "Nigeria",
        "latitude": 12.31666667,
        "longitude": 4.8,
        "wikiDataId": "Q7681093"
    },
    {
        "id": 722,
        "name": "Tangaza",
        "state_id": 292,
        "state_code": "SO",
        "state_name": "Sokoto",
        "country_id": 161,
        "country_code": "NG",
        "country_name": "Nigeria",
        "latitude": 13.5167,
        "longitude": 4.96667,
        "wikiDataId": "Q7682831"
    },
    {
        "id": 723,
        "name": "Tureta",
        "state_id": 292,
        "state_code": "SO",
        "state_name": "Sokoto",
        "country_id": 161,
        "country_code": "NG",
        "country_name": "Nigeria",
        "latitude": 12.58944444,
        "longitude": 5.54694444,
        "wikiDataId": "Q7854847"
    },
    {
        "id": 724,
        "name": "Wamako",
        "state_id": 292,
        "state_code": "SO",
        "state_name": "Sokoto",
        "country_id": 161,
        "country_code": "NG",
        "country_name": "Nigeria",
        "latitude": 13.03777778,
        "longitude": 5.09361111,
        "wikiDataId": "Q7966899"
    },
    {
        "id": 725,
        "name": "Wurno",
        "state_id": 292,
        "state_code": "SO",
        "state_name": "Sokoto",
        "country_id": 161,
        "country_code": "NG",
        "country_name": "Nigeria",
        "latitude": 13.28416667,
        "longitude": 5.4275,
        "wikiDataId": "Q8039303"
    },
    {
        "id": 726,
        "name": "Yabo",
        "state_id": 292,
        "state_code": "SO",
        "state_name": "Sokoto",
        "country_id": 161,
        "country_code": "NG",
        "country_name": "Nigeria",
        "latitude": 12.71916667,
        "longitude": 5.00616667,
        "wikiDataId": "Q8046387"
    },
    {
        "id": 727,
        "name": "Kebbe",
        "state_id": 292,
        "state_code": "SO",
        "state_name": "Sokoto",
        "country_id": 161,
        "country_code": "NG",
        "country_name": "Nigeria",
        "latitude": 12.13333333,
        "longitude": 4.73333333,
        "wikiDataId": "Q6382383"
    }
]