[
    {
        "id": 761,
        "name": "Anka",
        "state_id": 299,
        "state_code": "ZA",
        "state_name": "Zamfara",
        "country_id": 161,
        "country_code": "NG",
        "country_name": "Nigeria",
        "latitude": 11.98333333,
        "longitude": 6.03333333,
        "wikiDataId": "Q4765937"
    },
    {
        "id": 762,
        "name": "Bakura",
        "state_id": 299,
        "state_code": "ZA",
        "state_name": "Zamfara",
        "country_id": 161,
        "country_code": "NG",
        "country_name": "Nigeria",
        "latitude": 12.15,
        "longitude": 5.9,
        "wikiDataId": "Q4849604"
    },
    {
        "id": 763,
        "name": "Birnin Magaji/Kiyaw",
        "state_id": 299,
        "state_code": "ZA",
        "state_name": "Zamfara",
        "country_id": 161,
        "country_code": "NG",
        "country_name": "Nigeria",
        "latitude": 12.46666667,
        "longitude": 6.9,
        "wikiDataId": "Q4916899"
    },
    {
        "id": 764,
        "name": "Bukkuyum",
        "state_id": 299,
        "state_code": "ZA",
        "state_name": "Zamfara",
        "country_id": 161,
        "country_code": "NG",
        "country_name": "Nigeria",
        "latitude": 12,
        "longitude": 5.61666667,
        "wikiDataId": "Q13140404"
    },
    {
        "id": 765,
        "name": "Bungudu",
        "state_id": 299,
        "state_code": "ZA",
        "state_name": "Zamfara",
        "country_id": 161,
        "country_code": "NG",
        "country_name": "Nigeria",
        "latitude": 12.15,
        "longitude": 6.5,
        "wikiDataId": "Q4997683"
    },
    {
        "id": 766,
        "name": "Gummi",
        "state_id": 299,
        "state_code": "ZA",
        "state_name": "Zamfara",
        "country_id": 161,
        "country_code": "NG",
        "country_name": "Nigeria",
        "latitude": 12.05,
        "longitude": 5.16666667,
        "wikiDataId": "Q13140441"
    },
    {
        "id": 767,
        "name": "Gusau",
        "state_id": 299,
        "state_code": "ZA",
        "state_name": "Zamfara",
        "country_id": 161,
        "country_code": "NG",
        "country_name": "Nigeria",
        "latitude": 12.166667,
        "longitude": 6.666667,
        "wikiDataId": "Q600405"
    },
    {
        "id": 768,
        "name": "Kaura Namoda",
        "state_id": 299,
        "state_code": "ZA",
        "state_name": "Zamfara",
        "country_id": 161,
        "country_code": "NG",
        "country_name": "Nigeria",
        "latitude": 12.6,
        "longitude": 6.589722,
        "wikiDataId": "Q6378876"
    },
    {
        "id": 769,
        "name": "Maradun",
        "state_id": 299,
        "state_code": "ZA",
        "state_name": "Zamfara",
        "country_id": 161,
        "country_code": "NG",
        "country_name": "Nigeria",
        "latitude": 12.75,
        "longitude": 6.28333333,
        "wikiDataId": "Q6754606"
    },
    {
        "id": 770,
        "name": "Maru",
        "state_id": 299,
        "state_code": "ZA",
        "state_name": "Zamfara",
        "country_id": 161,
        "country_code": "NG",
        "country_name": "Nigeria",
        "latitude": 11.6,
        "longitude": 6.28333333,
        "wikiDataId": "Q6777871"
    },
    {
        "id": 771,
        "name": "Shinkafi",
        "state_id": 299,
        "state_code": "ZA",
        "state_name": "Zamfara",
        "country_id": 161,
        "country_code": "NG",
        "country_name": "Nigeria",
        "latitude": 13.03333333,
        "longitude": 6.51666667,
        "wikiDataId": "Q7497631"
    },
    {
        "id": 772,
        "name": "Talata Mafara",
        "state_id": 299,
        "state_code": "ZA",
        "state_name": "Zamfara",
        "country_id": 161,
        "country_code": "NG",
        "country_name": "Nigeria",
        "latitude": 12.35,
        "longitude": 6.06666667,
        "wikiDataId": "Q7678957"
    },
    {
        "id": 773,
        "name": "Tsafe",
        "state_id": 299,
        "state_code": "ZA",
        "state_name": "Zamfara",
        "country_id": 161,
        "country_code": "NG",
        "country_name": "Nigeria",
        "latitude": 11.93333333,
        "longitude": 6.9,
        "wikiDataId": "Q255961"
    },
    {
        "id": 774,
        "name": "Zurmi",
        "state_id": 299,
        "state_code": "ZA",
        "state_name": "Zamfara",
        "country_id": 161,
        "country_code": "NG",
        "country_name": "Nigeria",
        "latitude": 12.85,
        "longitude": 6.73333333,
        "wikiDataId": "Q8075410"
    }
]