<?xml version="1.0" encoding="utf-8"?>
<lgas>
	<lga>
		<id>70</id>
		<name>Aguata</name>
		<state_id>315</state_id>
		<state_code>AN</state_code>
		<state_name>Anambra</state_name>
		<country_id>161</country_id>
		<country_code>NG</country_code>
		<country_name>Nigeria</country_name>
		<latitude>6.01666667</latitude>
		<longitude>7.08333333</longitude>
		<wikiDataId>Q4694513</wikiDataId>
	</lga>
	<lga>
		<id>71</id>
		<name>Anambra East</name>
		<state_id>315</state_id>
		<state_code>AN</state_code>
		<state_name>Anambra</state_name>
		<country_id>161</country_id>
		<country_code>NG</country_code>
		<country_name>Nigeria</country_name>
		<latitude>6.333333</latitude>
		<longitude>6.866667</longitude>
		<wikiDataId>Q3509614</wikiDataId>
	</lga>
	<lga>
		<id>72</id>
		<name>Anambra West</name>
		<state_id>315</state_id>
		<state_code>AN</state_code>
		<state_name>Anambra</state_name>
		<country_id>161</country_id>
		<country_code>NG</country_code>
		<country_name>Nigeria</country_name>
		<latitude>6.416667</latitude>
		<longitude>6.683333</longitude>
		<wikiDataId>Q3510446</wikiDataId>
	</lga>
	<lga>
		<id>73</id>
		<name>Anaocha</name>
		<state_id>315</state_id>
		<state_code>AN</state_code>
		<state_name>Anambra</state_name>
		<country_id>161</country_id>
		<country_code>NG</country_code>
		<country_name>Nigeria</country_name>
		<latitude>6.15</latitude>
		<longitude>7.05</longitude>
		<wikiDataId>Q4751505</wikiDataId>
	</lga>
	<lga>
		<id>74</id>
		<name>Awka North</name>
		<state_id>315</state_id>
		<state_code>AN</state_code>
		<state_name>Anambra</state_name>
		<country_id>161</country_id>
		<country_code>NG</country_code>
		<country_name>Nigeria</country_name>
		<latitude>6.233333</latitude>
		<longitude>7.133333</longitude>
		<wikiDataId>Q4830080</wikiDataId>
	</lga>
	<lga>
		<id>75</id>
		<name>Awka South</name>
		<state_id>315</state_id>
		<state_code>AN</state_code>
		<state_name>Anambra</state_name>
		<country_id>161</country_id>
		<country_code>NG</country_code>
		<country_name>Nigeria</country_name>
		<latitude>6.16666667</latitude>
		<longitude>7.06666667</longitude>
		<wikiDataId>Q4830081</wikiDataId>
	</lga>
	<lga>
		<id>76</id>
		<name>Ayamelum</name>
		<state_id>315</state_id>
		<state_code>AN</state_code>
		<state_name>Anambra</state_name>
		<country_id>161</country_id>
		<country_code>NG</country_code>
		<country_name>Nigeria</country_name>
		<latitude>6.6</latitude>
		<longitude>6.966667</longitude>
		<wikiDataId>Q4830907</wikiDataId>
	</lga>
	<lga>
		<id>77</id>
		<name>Dunukofia</name>
		<state_id>315</state_id>
		<state_code>AN</state_code>
		<state_name>Anambra</state_name>
		<country_id>161</country_id>
		<country_code>NG</country_code>
		<country_name>Nigeria</country_name>
		<latitude>6.271944</latitude>
		<longitude>6.976667</longitude>
		<wikiDataId>Q5315776</wikiDataId>
	</lga>
	<lga>
		<id>78</id>
		<name>Ekwusigo</name>
		<state_id>315</state_id>
		<state_code>AN</state_code>
		<state_name>Anambra</state_name>
		<country_id>161</country_id>
		<country_code>NG</country_code>
		<country_name>Nigeria</country_name>
		<latitude>6.054662</latitude>
		<longitude>6.82859</longitude>
		<wikiDataId>Q5350637</wikiDataId>
	</lga>
	<lga>
		<id>79</id>
		<name>Idemili North</name>
		<state_id>315</state_id>
		<state_code>AN</state_code>
		<state_name>Anambra</state_name>
		<country_id>161</country_id>
		<country_code>NG</country_code>
		<country_name>Nigeria</country_name>
		<latitude>6.097069</latitude>
		<longitude>6.984745</longitude>
		<wikiDataId>Q11058846</wikiDataId>
	</lga>
	<lga>
		<id>80</id>
		<name>Idemili South</name>
		<state_id>315</state_id>
		<state_code>AN</state_code>
		<state_name>Anambra</state_name>
		<country_id>161</country_id>
		<country_code>NG</country_code>
		<country_name>Nigeria</country_name>
		<latitude>6.100683</latitude>
		<longitude>6.898364</longitude>
		<wikiDataId>Q5988156</wikiDataId>
	</lga>
	<lga>
		<id>81</id>
		<name>Ihiala</name>
		<state_id>315</state_id>
		<state_code>AN</state_code>
		<state_name>Anambra</state_name>
		<country_id>161</country_id>
		<country_code>NG</country_code>
		<country_name>Nigeria</country_name>
		<latitude>5.85388889</latitude>
		<longitude>6.86</longitude>
		<wikiDataId>Q3056230</wikiDataId>
	</lga>
	<lga>
		<id>82</id>
		<name>Njikoka</name>
		<state_id>315</state_id>
		<state_code>AN</state_code>
		<state_name>Anambra</state_name>
		<country_id>161</country_id>
		<country_code>NG</country_code>
		<country_name>Nigeria</country_name>
		<latitude>6.183846</latitude>
		<longitude>6.99191</longitude>
		<wikiDataId>Q13653675</wikiDataId>
	</lga>
	<lga>
		<id>83</id>
		<name>Nnewi North</name>
		<state_id>315</state_id>
		<state_code>AN</state_code>
		<state_name>Anambra</state_name>
		<country_id>161</country_id>
		<country_code>NG</country_code>
		<country_name>Nigeria</country_name>
		<latitude>5.938767</latitude>
		<longitude>5.938767</longitude>
		<wikiDataId>Q11058181</wikiDataId>
	</lga>
	<lga>
		<id>84</id>
		<name>Nnewi South</name>
		<state_id>315</state_id>
		<state_code>AN</state_code>
		<state_name>Anambra</state_name>
		<country_id>161</country_id>
		<country_code>NG</country_code>
		<country_name>Nigeria</country_name>
		<latitude>5.938383</latitude>
		<longitude>6.921821</longitude>
		<wikiDataId>Q7042725</wikiDataId>
	</lga>
	<lga>
		<id>85</id>
		<name>Ogbaru</name>
		<state_id>315</state_id>
		<state_code>AN</state_code>
		<state_name>Anambra</state_name>
		<country_id>161</country_id>
		<country_code>NG</country_code>
		<country_name>Nigeria</country_name>
		<latitude>5.960656</latitude>
		<longitude>6.731678</longitude>
		<wikiDataId>Q7079872</wikiDataId>
	</lga>
	<lga>
		<id>86</id>
		<name>Onitsha North</name>
		<state_id>315</state_id>
		<state_code>AN</state_code>
		<state_name>Anambra</state_name>
		<country_id>161</country_id>
		<country_code>NG</country_code>
		<country_name>Nigeria</country_name>
		<latitude>6.189277</latitude>
		<longitude>6.805853</longitude>
		<wikiDataId>Q3509391</wikiDataId>
	</lga>
	<lga>
		<id>87</id>
		<name>Onitsha South</name>
		<state_id>315</state_id>
		<state_code>AN</state_code>
		<state_name>Anambra</state_name>
		<country_id>161</country_id>
		<country_code>NG</country_code>
		<country_name>Nigeria</country_name>
		<latitude>6.135818</latitude>
		<longitude>6.788542</longitude>
		<wikiDataId>Q3510413</wikiDataId>
	</lga>
	<lga>
		<id>88</id>
		<name>Orumba North</name>
		<state_id>315</state_id>
		<state_code>AN</state_code>
		<state_name>Anambra</state_name>
		<country_id>161</country_id>
		<country_code>NG</country_code>
		<country_name>Nigeria</country_name>
		<latitude>6.042599</latitude>
		<longitude>7.213103</longitude>
		<wikiDataId>Q7105167</wikiDataId>
	</lga>
	<lga>
		<id>89</id>
		<name>Orumba South</name>
		<state_id>315</state_id>
		<state_code>AN</state_code>
		<state_name>Anambra</state_name>
		<country_id>161</country_id>
		<country_code>NG</country_code>
		<country_name>Nigeria</country_name>
		<latitude>5.990942</latitude>
		<longitude>5.990942</longitude>
		<wikiDataId>Q7105169</wikiDataId>
	</lga>
	<lga>
		<id>90</id>
		<name>Oyi</name>
		<state_id>315</state_id>
		<state_code>AN</state_code>
		<state_name>Anambra</state_name>
		<country_id>161</country_id>
		<country_code>NG</country_code>
		<country_name>Nigeria</country_name>
		<latitude>5.25</latitude>
		<longitude>6.21666667</longitude>
		<wikiDataId>Q7116267</wikiDataId>
	</lga>
</lgas>
