<?xml version="1.0" encoding="utf-8"?>
<lgas>
	<lga>
		<id>142</id>
		<name>Abadam</name>
		<state_id>307</state_id>
		<state_code>BO</state_code>
		<state_name>Borno</state_name>
		<country_id>161</country_id>
		<country_code>NG</country_code>
		<country_name>Nigeria</country_name>
		<latitude>13.610953</latitude>
		<longitude>13.277664</longitude>
		<wikiDataId>Q3509646</wikiDataId>
	</lga>
	<lga>
		<id>143</id>
		<name>Askira/Uba</name>
		<state_id>307</state_id>
		<state_code>BO</state_code>
		<state_name>Borno</state_name>
		<country_id>161</country_id>
		<country_code>NG</country_code>
		<country_name>Nigeria</country_name>
		<latitude>10.654724</latitude>
		<longitude>12.907777</longitude>
		<wikiDataId>Q3509469</wikiDataId>
	</lga>
	<lga>
		<id>144</id>
		<name>Bama</name>
		<state_id>307</state_id>
		<state_code>BO</state_code>
		<state_name>Borno</state_name>
		<country_id>161</country_id>
		<country_code>NG</country_code>
		<country_name>Nigeria</country_name>
		<latitude>11.51888889</latitude>
		<longitude>13.68416667</longitude>
		<wikiDataId>Q3331583</wikiDataId>
	</lga>
	<lga>
		<id>145</id>
		<name>Bayo</name>
		<state_id>307</state_id>
		<state_code>BO</state_code>
		<state_name>Borno</state_name>
		<country_id>161</country_id>
		<country_code>NG</country_code>
		<country_name>Nigeria</country_name>
		<latitude>10.441838</latitude>
		<longitude>11.704237</longitude>
		<wikiDataId>Q4874676</wikiDataId>
	</lga>
	<lga>
		<id>146</id>
		<name>Biu</name>
		<state_id>307</state_id>
		<state_code>BO</state_code>
		<state_name>Borno</state_name>
		<country_id>161</country_id>
		<country_code>NG</country_code>
		<country_name>Nigeria</country_name>
		<latitude>10.6111</latitude>
		<longitude>12.195</longitude>
		<wikiDataId>Q2904965</wikiDataId>
	</lga>
	<lga>
		<id>147</id>
		<name>Chibok</name>
		<state_id>307</state_id>
		<state_code>BO</state_code>
		<state_name>Borno</state_name>
		<country_id>161</country_id>
		<country_code>NG</country_code>
		<country_name>Nigeria</country_name>
		<latitude>10.86972222</latitude>
		<longitude>12.84666667</longitude>
		<wikiDataId>Q5095348</wikiDataId>
	</lga>
	<lga>
		<id>148</id>
		<name>Damboa</name>
		<state_id>307</state_id>
		<state_code>BO</state_code>
		<state_name>Borno</state_name>
		<country_id>161</country_id>
		<country_code>NG</country_code>
		<country_name>Nigeria</country_name>
		<latitude>11.15</latitude>
		<longitude>12.75</longitude>
		<wikiDataId>Q5212096</wikiDataId>
	</lga>
	<lga>
		<id>149</id>
		<name>Dikwa</name>
		<state_id>307</state_id>
		<state_code>BO</state_code>
		<state_name>Borno</state_name>
		<country_id>161</country_id>
		<country_code>NG</country_code>
		<country_name>Nigeria</country_name>
		<latitude>12.0239</latitude>
		<longitude>13.9158</longitude>
		<wikiDataId>Q5276586</wikiDataId>
	</lga>
	<lga>
		<id>150</id>
		<name>Gubio</name>
		<state_id>307</state_id>
		<state_code>BO</state_code>
		<state_name>Borno</state_name>
		<country_id>161</country_id>
		<country_code>NG</country_code>
		<country_name>Nigeria</country_name>
		<latitude>12.4975</latitude>
		<longitude>12.78</longitude>
		<wikiDataId>Q5610675</wikiDataId>
	</lga>
	<lga>
		<id>151</id>
		<name>Guzamala</name>
		<state_id>307</state_id>
		<state_code>BO</state_code>
		<state_name>Borno</state_name>
		<country_id>161</country_id>
		<country_code>NG</country_code>
		<country_name>Nigeria</country_name>
		<latitude>12.94656</latitude>
		<longitude>13.176822</longitude>
		<wikiDataId>Q5622902</wikiDataId>
	</lga>
	<lga>
		<id>152</id>
		<name>Gwoza</name>
		<state_id>307</state_id>
		<state_code>BO</state_code>
		<state_name>Borno</state_name>
		<country_id>161</country_id>
		<country_code>NG</country_code>
		<country_name>Nigeria</country_name>
		<latitude>11.086111</latitude>
		<longitude>13.691389</longitude>
		<wikiDataId>Q5623719</wikiDataId>
	</lga>
	<lga>
		<id>153</id>
		<name>Hawul</name>
		<state_id>307</state_id>
		<state_code>BO</state_code>
		<state_name>Borno</state_name>
		<country_id>161</country_id>
		<country_code>NG</country_code>
		<country_name>Nigeria</country_name>
		<latitude>10.451308</latitude>
		<longitude>12.116581</longitude>
		<wikiDataId>Q5685688</wikiDataId>
	</lga>
	<lga>
		<id>154</id>
		<name>Jere</name>
		<state_id>307</state_id>
		<state_code>BO</state_code>
		<state_name>Borno</state_name>
		<country_id>161</country_id>
		<country_code>NG</country_code>
		<country_name>Nigeria</country_name>
		<latitude>11.89912</latitude>
		<longitude>13.29155</longitude>
		<wikiDataId>Q13140477</wikiDataId>
	</lga>
	<lga>
		<id>155</id>
		<name>Kaga</name>
		<state_id>307</state_id>
		<state_code>BO</state_code>
		<state_name>Borno</state_name>
		<country_id>161</country_id>
		<country_code>NG</country_code>
		<country_name>Nigeria</country_name>
		<latitude>11.810333</latitude>
		<longitude>12.494153</longitude>
		<wikiDataId>Q6346306</wikiDataId>
	</lga>
	<lga>
		<id>156</id>
		<name>Kala/Balge</name>
		<state_id>307</state_id>
		<state_code>BO</state_code>
		<state_name>Borno</state_name>
		<country_id>161</country_id>
		<country_code>NG</country_code>
		<country_name>Nigeria</country_name>
		<latitude>12.268627</latitude>
		<longitude>14.464896</longitude>
		<wikiDataId>Q6349919</wikiDataId>
	</lga>
	<lga>
		<id>157</id>
		<name>Konduga</name>
		<state_id>307</state_id>
		<state_code>BO</state_code>
		<state_name>Borno</state_name>
		<country_id>161</country_id>
		<country_code>NG</country_code>
		<country_name>Nigeria</country_name>
		<latitude>11.65166667</latitude>
		<longitude>13.41944444</longitude>
		<wikiDataId>Q6429051</wikiDataId>
	</lga>
	<lga>
		<id>158</id>
		<name>Kukawa</name>
		<state_id>307</state_id>
		<state_code>BO</state_code>
		<state_name>Borno</state_name>
		<country_id>161</country_id>
		<country_code>NG</country_code>
		<country_name>Nigeria</country_name>
		<latitude>12.91666667</latitude>
		<longitude>13.56666667</longitude>
		<wikiDataId>Q128665</wikiDataId>
	</lga>
	<lga>
		<id>159</id>
		<name>Kwaya Kusar</name>
		<state_id>307</state_id>
		<state_code>BO</state_code>
		<state_name>Borno</state_name>
		<country_id>161</country_id>
		<country_code>NG</country_code>
		<country_name>Nigeria</country_name>
		<latitude>11.817338</latitude>
		<longitude>13.120352</longitude>
		<wikiDataId>Q6450273</wikiDataId>
	</lga>
	<lga>
		<id>160</id>
		<name>Mafa</name>
		<state_id>307</state_id>
		<state_code>BO</state_code>
		<state_name>Borno</state_name>
		<country_id>161</country_id>
		<country_code>NG</country_code>
		<country_name>Nigeria</country_name>
		<latitude>11.92583333</latitude>
		<longitude>13.60555556</longitude>
		<wikiDataId>Q6729409</wikiDataId>
	</lga>
	<lga>
		<id>161</id>
		<name>Magumeri</name>
		<state_id>307</state_id>
		<state_code>BO</state_code>
		<state_name>Borno</state_name>
		<country_id>161</country_id>
		<country_code>NG</country_code>
		<country_name>Nigeria</country_name>
		<latitude>12.115657</latitude>
		<longitude>12.83101</longitude>
		<wikiDataId>Q6732527</wikiDataId>
	</lga>
	<lga>
		<id>162</id>
		<name>Maiduguri</name>
		<state_id>307</state_id>
		<state_code>BO</state_code>
		<state_name>Borno</state_name>
		<country_id>161</country_id>
		<country_code>NG</country_code>
		<country_name>Nigeria</country_name>
		<latitude>11.83333333</latitude>
		<longitude>13.15</longitude>
		<wikiDataId>Q221436</wikiDataId>
	</lga>
	<lga>
		<id>163</id>
		<name>Marte</name>
		<state_id>307</state_id>
		<state_code>BO</state_code>
		<state_name>Borno</state_name>
		<country_id>161</country_id>
		<country_code>NG</country_code>
		<country_name>Nigeria</country_name>
		<latitude>12.364596</latitude>
		<longitude>13.826741</longitude>
		<wikiDataId>Q295517</wikiDataId>
	</lga>
	<lga>
		<id>164</id>
		<name>Mobbar</name>
		<state_id>307</state_id>
		<state_code>BO</state_code>
		<state_name>Borno</state_name>
		<country_id>161</country_id>
		<country_code>NG</country_code>
		<country_name>Nigeria</country_name>
		<latitude>13.103993</latitude>
		<longitude>12.511041</longitude>
		<wikiDataId>Q6886647</wikiDataId>
	</lga>
	<lga>
		<id>165</id>
		<name>Monguno</name>
		<state_id>307</state_id>
		<state_code>BO</state_code>
		<state_name>Borno</state_name>
		<country_id>161</country_id>
		<country_code>NG</country_code>
		<country_name>Nigeria</country_name>
		<latitude>12.68333333</latitude>
		<longitude>13.6</longitude>
		<wikiDataId>Q15043599</wikiDataId>
	</lga>
	<lga>
		<id>166</id>
		<name>Ngala</name>
		<state_id>307</state_id>
		<state_code>BO</state_code>
		<state_name>Borno</state_name>
		<country_id>161</country_id>
		<country_code>NG</country_code>
		<country_name>Nigeria</country_name>
		<latitude>12.371107</latitude>
		<longitude>14.206223</longitude>
		<wikiDataId>Q7021892</wikiDataId>
	</lga>
	<lga>
		<id>167</id>
		<name>Nganzai</name>
		<state_id>307</state_id>
		<state_code>BO</state_code>
		<state_name>Borno</state_name>
		<country_id>161</country_id>
		<country_code>NG</country_code>
		<country_name>Nigeria</country_name>
		<latitude>12.486253</latitude>
		<longitude>13.209321</longitude>
		<wikiDataId>Q7022015</wikiDataId>
	</lga>
	<lga>
		<id>168</id>
		<name>Shani</name>
		<state_id>307</state_id>
		<state_code>BO</state_code>
		<state_name>Borno</state_name>
		<country_id>161</country_id>
		<country_code>NG</country_code>
		<country_name>Nigeria</country_name>
		<latitude>10.183889</latitude>
		<longitude>11.963889</longitude>
		<wikiDataId>Q7488621</wikiDataId>
	</lga>
</lgas>
