<?xml version="1.0" encoding="utf-8"?>
<lgas>
	<lga>
		<id>370</id>
		<name>Ajingi</name>
		<state_id>300</state_id>
		<state_code>KN</state_code>
		<state_name>Kano</state_name>
		<country_id>161</country_id>
		<country_code>NG</country_code>
		<country_name>Nigeria</country_name>
		<latitude>11.97</latitude>
		<longitude>9.03916667</longitude>
		<wikiDataId>Q4699747</wikiDataId>
	</lga>
	<lga>
		<id>371</id>
		<name>Albasu</name>
		<state_id>300</state_id>
		<state_code>KN</state_code>
		<state_name>Kano</state_name>
		<country_id>161</country_id>
		<country_code>NG</country_code>
		<country_name>Nigeria</country_name>
		<latitude>11.67388889</latitude>
		<longitude>9.14111111</longitude>
		<wikiDataId>Q4709434</wikiDataId>
	</lga>
	<lga>
		<id>372</id>
		<name>Bagwai</name>
		<state_id>300</state_id>
		<state_code>KN</state_code>
		<state_name>Kano</state_name>
		<country_id>161</country_id>
		<country_code>NG</country_code>
		<country_name>Nigeria</country_name>
		<latitude>12.15777778</latitude>
		<longitude>8.13583333</longitude>
		<wikiDataId>Q4842187</wikiDataId>
	</lga>
	<lga>
		<id>373</id>
		<name>Bebeji</name>
		<state_id>300</state_id>
		<state_code>KN</state_code>
		<state_name>Kano</state_name>
		<country_id>161</country_id>
		<country_code>NG</country_code>
		<country_name>Nigeria</country_name>
		<latitude>11.66666667</latitude>
		<longitude>8.26666667</longitude>
		<wikiDataId>Q4878426</wikiDataId>
	</lga>
	<lga>
		<id>374</id>
		<name>Bichi</name>
		<state_id>300</state_id>
		<state_code>KN</state_code>
		<state_name>Kano</state_name>
		<country_id>161</country_id>
		<country_code>NG</country_code>
		<country_name>Nigeria</country_name>
		<latitude>12.23416667</latitude>
		<longitude>8.24111111</longitude>
		<wikiDataId>Q4903607</wikiDataId>
	</lga>
	<lga>
		<id>375</id>
		<name>Bunkure</name>
		<state_id>300</state_id>
		<state_code>KN</state_code>
		<state_name>Kano</state_name>
		<country_id>161</country_id>
		<country_code>NG</country_code>
		<country_name>Nigeria</country_name>
		<latitude>11.7</latitude>
		<longitude>8.55</longitude>
		<wikiDataId>Q13140410</wikiDataId>
	</lga>
	<lga>
		<id>376</id>
		<name>Dala</name>
		<state_id>300</state_id>
		<state_code>KN</state_code>
		<state_name>Kano</state_name>
		<country_id>161</country_id>
		<country_code>NG</country_code>
		<country_name>Nigeria</country_name>
		<latitude>12.01666667</latitude>
		<longitude>8.48333333</longitude>
		<wikiDataId>Q5210142</wikiDataId>
	</lga>
	<lga>
		<id>377</id>
		<name>Dambatta</name>
		<state_id>300</state_id>
		<state_code>KN</state_code>
		<state_name>Kano</state_name>
		<country_id>161</country_id>
		<country_code>NG</country_code>
		<country_name>Nigeria</country_name>
		<latitude>12.43305556</latitude>
		<longitude>8.51527778</longitude>
		<wikiDataId>Q5212087</wikiDataId>
	</lga>
	<lga>
		<id>378</id>
		<name>Dawakin Kudu</name>
		<state_id>300</state_id>
		<state_code>KN</state_code>
		<state_name>Kano</state_name>
		<country_id>161</country_id>
		<country_code>NG</country_code>
		<country_name>Nigeria</country_name>
		<latitude>11.83472222</latitude>
		<longitude>8.59805556</longitude>
		<wikiDataId>Q5242270</wikiDataId>
	</lga>
	<lga>
		<id>379</id>
		<name>Dawakin Tofa</name>
		<state_id>300</state_id>
		<state_code>KN</state_code>
		<state_name>Kano</state_name>
		<country_id>161</country_id>
		<country_code>NG</country_code>
		<country_name>Nigeria</country_name>
		<latitude>12.10277778</latitude>
		<longitude>8.33138889</longitude>
		<wikiDataId>Q5242271</wikiDataId>
	</lga>
	<lga>
		<id>380</id>
		<name>Doguwa</name>
		<state_id>300</state_id>
		<state_code>KN</state_code>
		<state_name>Kano</state_name>
		<country_id>161</country_id>
		<country_code>NG</country_code>
		<country_name>Nigeria</country_name>
		<latitude>10.75</latitude>
		<longitude>8.73333333</longitude>
		<wikiDataId>Q5288494</wikiDataId>
	</lga>
	<lga>
		<id>381</id>
		<name>Fagge</name>
		<state_id>300</state_id>
		<state_code>KN</state_code>
		<state_name>Kano</state_name>
		<country_id>161</country_id>
		<country_code>NG</country_code>
		<country_name>Nigeria</country_name>
		<latitude>12.00666667</latitude>
		<longitude>8.52916667</longitude>
		<wikiDataId>Q5429405</wikiDataId>
	</lga>
	<lga>
		<id>382</id>
		<name>Gabasawa</name>
		<state_id>300</state_id>
		<state_code>KN</state_code>
		<state_name>Kano</state_name>
		<country_id>161</country_id>
		<country_code>NG</country_code>
		<country_name>Nigeria</country_name>
		<latitude>12.1</latitude>
		<longitude>8.88333333</longitude>
		<wikiDataId>Q5515278</wikiDataId>
	</lga>
	<lga>
		<id>383</id>
		<name>Garko</name>
		<state_id>300</state_id>
		<state_code>KN</state_code>
		<state_name>Kano</state_name>
		<country_id>161</country_id>
		<country_code>NG</country_code>
		<country_name>Nigeria</country_name>
		<latitude>11.65</latitude>
		<longitude>8.9</longitude>
		<wikiDataId>Q5523394</wikiDataId>
	</lga>
	<lga>
		<id>384</id>
		<name>Garun Malam</name>
		<state_id>300</state_id>
		<state_code>KN</state_code>
		<state_name>Kano</state_name>
		<country_id>161</country_id>
		<country_code>NG</country_code>
		<country_name>Nigeria</country_name>
		<latitude>11.6833</latitude>
		<longitude>8.36667</longitude>
		<wikiDataId>Q5524488</wikiDataId>
	</lga>
	<lga>
		<id>385</id>
		<name>Gaya</name>
		<state_id>300</state_id>
		<state_code>KN</state_code>
		<state_name>Kano</state_name>
		<country_id>161</country_id>
		<country_code>NG</country_code>
		<country_name>Nigeria</country_name>
		<latitude>11.86805556</latitude>
		<longitude>9.01111111</longitude>
		<wikiDataId>Q5528692</wikiDataId>
	</lga>
	<lga>
		<id>386</id>
		<name>Gezawa</name>
		<state_id>300</state_id>
		<state_code>KN</state_code>
		<state_name>Kano</state_name>
		<country_id>161</country_id>
		<country_code>NG</country_code>
		<country_name>Nigeria</country_name>
		<latitude>12.1</latitude>
		<longitude>8.73333333</longitude>
		<wikiDataId>Q5555061</wikiDataId>
	</lga>
	<lga>
		<id>387</id>
		<name>Gwale</name>
		<state_id>300</state_id>
		<state_code>KN</state_code>
		<state_name>Kano</state_name>
		<country_id>161</country_id>
		<country_code>NG</country_code>
		<country_name>Nigeria</country_name>
		<latitude>11.96666667</latitude>
		<longitude>8.5</longitude>
		<wikiDataId>Q5623248</wikiDataId>
	</lga>
	<lga>
		<id>388</id>
		<name>Gwarzo</name>
		<state_id>300</state_id>
		<state_code>KN</state_code>
		<state_name>Kano</state_name>
		<country_id>161</country_id>
		<country_code>NG</country_code>
		<country_name>Nigeria</country_name>
		<latitude>11.91666667</latitude>
		<longitude>7.93333333</longitude>
		<wikiDataId>Q5623352</wikiDataId>
	</lga>
	<lga>
		<id>389</id>
		<name>Kabo</name>
		<state_id>300</state_id>
		<state_code>KN</state_code>
		<state_name>Kano</state_name>
		<country_id>161</country_id>
		<country_code>NG</country_code>
		<country_name>Nigeria</country_name>
		<latitude>7.69944444</latitude>
		<longitude>18.62916667</longitude>
		<wikiDataId>Q2428075</wikiDataId>
	</lga>
	<lga>
		<id>390</id>
		<name>Kano Municipal</name>
		<state_id>300</state_id>
		<state_code>KN</state_code>
		<state_name>Kano</state_name>
		<country_id>161</country_id>
		<country_code>NG</country_code>
		<country_name>Nigeria</country_name>
		<latitude>11.95194444</latitude>
		<longitude>8.54027778</longitude>
		<wikiDataId>Q10313749</wikiDataId>
	</lga>
	<lga>
		<id>391</id>
		<name>Karaye</name>
		<state_id>300</state_id>
		<state_code>KN</state_code>
		<state_name>Kano</state_name>
		<country_id>161</country_id>
		<country_code>NG</country_code>
		<country_name>Nigeria</country_name>
		<latitude>11.78333333</latitude>
		<longitude>8.01666667</longitude>
		<wikiDataId>Q6368888</wikiDataId>
	</lga>
	<lga>
		<id>392</id>
		<name>Kibiya</name>
		<state_id>300</state_id>
		<state_code>KN</state_code>
		<state_name>Kano</state_name>
		<country_id>161</country_id>
		<country_code>NG</country_code>
		<country_name>Nigeria</country_name>
		<latitude>11.53333333</latitude>
		<longitude>8.66666667</longitude>
		<wikiDataId>Q6404045</wikiDataId>
	</lga>
	<lga>
		<id>393</id>
		<name>Kiru</name>
		<state_id>300</state_id>
		<state_code>KN</state_code>
		<state_name>Kano</state_name>
		<country_id>161</country_id>
		<country_code>NG</country_code>
		<country_name>Nigeria</country_name>
		<latitude>11.7</latitude>
		<longitude>8.13333333</longitude>
		<wikiDataId>Q6416264</wikiDataId>
	</lga>
	<lga>
		<id>394</id>
		<name>Kunchi</name>
		<state_id>300</state_id>
		<state_code>KN</state_code>
		<state_name>Kano</state_name>
		<country_id>161</country_id>
		<country_code>NG</country_code>
		<country_name>Nigeria</country_name>
		<latitude>12.50138889</latitude>
		<longitude>8.27166667</longitude>
		<wikiDataId>Q6444225</wikiDataId>
	</lga>
	<lga>
		<id>395</id>
		<name>Kura</name>
		<state_id>300</state_id>
		<state_code>KN</state_code>
		<state_name>Kano</state_name>
		<country_id>161</country_id>
		<country_code>NG</country_code>
		<country_name>Nigeria</country_name>
		<latitude>11.77138889</latitude>
		<longitude>8.43027778</longitude>
		<wikiDataId>Q6445487</wikiDataId>
	</lga>
	<lga>
		<id>396</id>
		<name>Madobi</name>
		<state_id>300</state_id>
		<state_code>KN</state_code>
		<state_name>Kano</state_name>
		<country_id>161</country_id>
		<country_code>NG</country_code>
		<country_name>Nigeria</country_name>
		<latitude>11.77722222</latitude>
		<longitude>8.28833333</longitude>
		<wikiDataId>Q6728324</wikiDataId>
	</lga>
	<lga>
		<id>397</id>
		<name>Makoda</name>
		<state_id>300</state_id>
		<state_code>KN</state_code>
		<state_name>Kano</state_name>
		<country_id>161</country_id>
		<country_code>NG</country_code>
		<country_name>Nigeria</country_name>
		<latitude>12.41861111</latitude>
		<longitude>8.4325</longitude>
		<wikiDataId>Q6739854</wikiDataId>
	</lga>
	<lga>
		<id>398</id>
		<name>Minjibir</name>
		<state_id>300</state_id>
		<state_code>KN</state_code>
		<state_name>Kano</state_name>
		<country_id>161</country_id>
		<country_code>NG</country_code>
		<country_name>Nigeria</country_name>
		<latitude>12.17833333</latitude>
		<longitude>8.65916667</longitude>
		<wikiDataId>Q6867755</wikiDataId>
	</lga>
	<lga>
		<id>399</id>
		<name>Nasarawa</name>
		<state_id>300</state_id>
		<state_code>KN</state_code>
		<state_name>Kano</state_name>
		<country_id>161</country_id>
		<country_code>NG</country_code>
		<country_name>Nigeria</country_name>
		<latitude>8.53333333</latitude>
		<longitude>8.3</longitude>
		<wikiDataId>Q836645</wikiDataId>
	</lga>
	<lga>
		<id>400</id>
		<name>Rano</name>
		<state_id>300</state_id>
		<state_code>KN</state_code>
		<state_name>Kano</state_name>
		<country_id>161</country_id>
		<country_code>NG</country_code>
		<country_name>Nigeria</country_name>
		<latitude>11.55722222</latitude>
		<longitude>8.58333333</longitude>
		<wikiDataId>Q7293412</wikiDataId>
	</lga>
	<lga>
		<id>401</id>
		<name>Rimin Gado</name>
		<state_id>300</state_id>
		<state_code>KN</state_code>
		<state_name>Kano</state_name>
		<country_id>161</country_id>
		<country_code>NG</country_code>
		<country_name>Nigeria</country_name>
		<latitude>11.965</latitude>
		<longitude>8.25</longitude>
		<wikiDataId>Q3432111</wikiDataId>
	</lga>
	<lga>
		<id>402</id>
		<name>Rogo</name>
		<state_id>300</state_id>
		<state_code>KN</state_code>
		<state_name>Kano</state_name>
		<country_id>161</country_id>
		<country_code>NG</country_code>
		<country_name>Nigeria</country_name>
		<latitude>11.56666667</latitude>
		<longitude>7.83333333</longitude>
		<wikiDataId>Q7359427</wikiDataId>
	</lga>
	<lga>
		<id>403</id>
		<name>Shanono</name>
		<state_id>300</state_id>
		<state_code>KN</state_code>
		<state_name>Kano</state_name>
		<country_id>161</country_id>
		<country_code>NG</country_code>
		<country_name>Nigeria</country_name>
		<latitude>12.05</latitude>
		<longitude>7.98333333</longitude>
		<wikiDataId>Q7489007</wikiDataId>
	</lga>
	<lga>
		<id>404</id>
		<name>Sumaila</name>
		<state_id>300</state_id>
		<state_code>KN</state_code>
		<state_name>Kano</state_name>
		<country_id>161</country_id>
		<country_code>NG</country_code>
		<country_name>Nigeria</country_name>
		<latitude>11.53333333</latitude>
		<longitude>8.96666667</longitude>
		<wikiDataId>Q7636917</wikiDataId>
	</lga>
	<lga>
		<id>405</id>
		<name>Takai</name>
		<state_id>300</state_id>
		<state_code>KN</state_code>
		<state_name>Kano</state_name>
		<country_id>161</country_id>
		<country_code>NG</country_code>
		<country_name>Nigeria</country_name>
		<latitude>20.51666667</latitude>
		<longitude>84.33333333</longitude>
		<wikiDataId>Q48723575</wikiDataId>
	</lga>
	<lga>
		<id>406</id>
		<name>Tarauni</name>
		<state_id>300</state_id>
		<state_code>KN</state_code>
		<state_name>Kano</state_name>
		<country_id>161</country_id>
		<country_code>NG</country_code>
		<country_name>Nigeria</country_name>
		<latitude>11.96666667</latitude>
		<longitude>8.56666667</longitude>
		<wikiDataId>Q9081916</wikiDataId>
	</lga>
	<lga>
		<id>407</id>
		<name>Tofa</name>
		<state_id>300</state_id>
		<state_code>KN</state_code>
		<state_name>Kano</state_name>
		<country_id>161</country_id>
		<country_code>NG</country_code>
		<country_name>Nigeria</country_name>
		<latitude>12.05</latitude>
		<longitude>8.26666667</longitude>
		<wikiDataId>Q7812950</wikiDataId>
	</lga>
	<lga>
		<id>408</id>
		<name>Tsanyawa</name>
		<state_id>300</state_id>
		<state_code>KN</state_code>
		<state_name>Kano</state_name>
		<country_id>161</country_id>
		<country_code>NG</country_code>
		<country_name>Nigeria</country_name>
		<latitude>12.3</latitude>
		<longitude>7.98333333</longitude>
		<wikiDataId>Q7849383</wikiDataId>
	</lga>
	<lga>
		<id>409</id>
		<name>Tudun Wada</name>
		<state_id>300</state_id>
		<state_code>KN</state_code>
		<state_name>Kano</state_name>
		<country_id>161</country_id>
		<country_code>NG</country_code>
		<country_name>Nigeria</country_name>
		<latitude>11.25</latitude>
		<longitude>8.4</longitude>
		<wikiDataId>Q7851355</wikiDataId>
	</lga>
	<lga>
		<id>410</id>
		<name>Ungogo</name>
		<state_id>300</state_id>
		<state_code>KN</state_code>
		<state_name>Kano</state_name>
		<country_id>161</country_id>
		<country_code>NG</country_code>
		<country_name>Nigeria</country_name>
		<latitude>12.09055556</latitude>
		<longitude>8.49666667</longitude>
		<wikiDataId>Q3510251</wikiDataId>
	</lga>
	<lga>
		<id>411</id>
		<name>Warawa</name>
		<state_id>300</state_id>
		<state_code>KN</state_code>
		<state_name>Kano</state_name>
		<country_id>161</country_id>
		<country_code>NG</country_code>
		<country_name>Nigeria</country_name>
		<latitude>11.88333333</latitude>
		<longitude>8.68333333</longitude>
		<wikiDataId>Q7968824</wikiDataId>
	</lga>
	<lga>
		<id>412</id>
		<name>Wudil</name>
		<state_id>300</state_id>
		<state_code>KN</state_code>
		<state_name>Kano</state_name>
		<country_id>161</country_id>
		<country_code>NG</country_code>
		<country_name>Nigeria</country_name>
		<latitude>11.81666667</latitude>
		<longitude>8.85</longitude>
		<wikiDataId>Q8039048</wikiDataId>
	</lga>
	<lga>
		<id>413</id>
		<name>kumbotso</name>
		<state_id>300</state_id>
		<state_code>KN</state_code>
		<state_name>Kano</state_name>
		<country_id>161</country_id>
		<country_code>NG</country_code>
		<country_name>Nigeria</country_name>
		<latitude>11.88805556</latitude>
		<longitude>8.50277778</longitude>
		<wikiDataId>Q6443769</wikiDataId>
	</lga>
</lgas>
