<?xml version="1.0" encoding="utf-8"?>
<lgas>
	<lga>
		<id>414</id>
		<name>Bakori</name>
		<state_id>313</state_id>
		<state_code>KT</state_code>
		<state_name>Katsina</state_name>
		<country_id>161</country_id>
		<country_code>NG</country_code>
		<country_name>Nigeria</country_name>
		<latitude>11.55</latitude>
		<longitude>7.43333333</longitude>
		<wikiDataId>Q4849509</wikiDataId>
	</lga>
	<lga>
		<id>415</id>
		<name>Batagarawa</name>
		<state_id>313</state_id>
		<state_code>KT</state_code>
		<state_name>Katsina</state_name>
		<country_id>161</country_id>
		<country_code>NG</country_code>
		<country_name>Nigeria</country_name>
		<latitude>12.9</latitude>
		<longitude>7.61666667</longitude>
		<wikiDataId>Q4868527</wikiDataId>
	</lga>
	<lga>
		<id>416</id>
		<name>Batsari</name>
		<state_id>313</state_id>
		<state_code>KT</state_code>
		<state_name>Katsina</state_name>
		<country_id>161</country_id>
		<country_code>NG</country_code>
		<country_name>Nigeria</country_name>
		<latitude>12.75277778</latitude>
		<longitude>7.24194444</longitude>
		<wikiDataId>Q4869633</wikiDataId>
	</lga>
	<lga>
		<id>417</id>
		<name>Baure</name>
		<state_id>313</state_id>
		<state_code>KT</state_code>
		<state_name>Katsina</state_name>
		<country_id>161</country_id>
		<country_code>NG</country_code>
		<country_name>Nigeria</country_name>
		<latitude>12.78333333</latitude>
		<longitude>8.76666667</longitude>
		<wikiDataId>Q4873577</wikiDataId>
	</lga>
	<lga>
		<id>418</id>
		<name>Bindawa</name>
		<state_id>313</state_id>
		<state_code>KT</state_code>
		<state_name>Katsina</state_name>
		<country_id>161</country_id>
		<country_code>NG</country_code>
		<country_name>Nigeria</country_name>
		<latitude>12.71666667</latitude>
		<longitude>7.83333333</longitude>
		<wikiDataId>Q4913977</wikiDataId>
	</lga>
	<lga>
		<id>419</id>
		<name>Charanchi</name>
		<state_id>313</state_id>
		<state_code>KT</state_code>
		<state_name>Katsina</state_name>
		<country_id>161</country_id>
		<country_code>NG</country_code>
		<country_name>Nigeria</country_name>
		<latitude>12.675</latitude>
		<longitude>7.7275</longitude>
		<wikiDataId>Q5073921</wikiDataId>
	</lga>
	<lga>
		<id>420</id>
		<name>Dan Musa</name>
		<state_id>313</state_id>
		<state_code>KT</state_code>
		<state_name>Katsina</state_name>
		<country_id>161</country_id>
		<country_code>NG</country_code>
		<country_name>Nigeria</country_name>
		<latitude>12.26388889</latitude>
		<longitude>7.33388889</longitude>
		<wikiDataId>Q5214083</wikiDataId>
	</lga>
	<lga>
		<id>421</id>
		<name>DanDume</name>
		<state_id>313</state_id>
		<state_code>KT</state_code>
		<state_name>Katsina</state_name>
		<country_id>161</country_id>
		<country_code>NG</country_code>
		<country_name>Nigeria</country_name>
		<latitude>11.41666667</latitude>
		<longitude>7.2</longitude>
		<wikiDataId>Q5215754</wikiDataId>
	</lga>
	<lga>
		<id>422</id>
		<name>Danja</name>
		<state_id>313</state_id>
		<state_code>KT</state_code>
		<state_name>Katsina</state_name>
		<country_id>161</country_id>
		<country_code>NG</country_code>
		<country_name>Nigeria</country_name>
		<latitude>11.38333333</latitude>
		<longitude>7.56666667</longitude>
		<wikiDataId>Q5219922</wikiDataId>
	</lga>
	<lga>
		<id>423</id>
		<name>Daura</name>
		<state_id>313</state_id>
		<state_code>KT</state_code>
		<state_name>Katsina</state_name>
		<country_id>161</country_id>
		<country_code>NG</country_code>
		<country_name>Nigeria</country_name>
		<latitude>13.03638889</latitude>
		<longitude>8.31777778</longitude>
		<wikiDataId>Q1173023</wikiDataId>
	</lga>
	<lga>
		<id>424</id>
		<name>Dutsi</name>
		<state_id>313</state_id>
		<state_code>KT</state_code>
		<state_name>Katsina</state_name>
		<country_id>161</country_id>
		<country_code>NG</country_code>
		<country_name>Nigeria</country_name>
		<latitude>12.82527778</latitude>
		<longitude>8.14277778</longitude>
		<wikiDataId>Q5317531</wikiDataId>
	</lga>
	<lga>
		<id>425</id>
		<name>Dutsin-Ma</name>
		<state_id>313</state_id>
		<state_code>KT</state_code>
		<state_name>Katsina</state_name>
		<country_id>161</country_id>
		<country_code>NG</country_code>
		<country_name>Nigeria</country_name>
		<latitude>12.455</latitude>
		<longitude>7.49138889</longitude>
		<wikiDataId>Q5317533</wikiDataId>
	</lga>
	<lga>
		<id>426</id>
		<name>Faskari</name>
		<state_id>313</state_id>
		<state_code>KT</state_code>
		<state_name>Katsina</state_name>
		<country_id>161</country_id>
		<country_code>NG</country_code>
		<country_name>Nigeria</country_name>
		<latitude>11.71666667</latitude>
		<longitude>7.03333333</longitude>
		<wikiDataId>Q5436812</wikiDataId>
	</lga>
	<lga>
		<id>427</id>
		<name>Funtua</name>
		<state_id>313</state_id>
		<state_code>KT</state_code>
		<state_name>Katsina</state_name>
		<country_id>161</country_id>
		<country_code>NG</country_code>
		<country_name>Nigeria</country_name>
		<latitude>11.53333333</latitude>
		<longitude>7.31666667</longitude>
		<wikiDataId>Q3056264</wikiDataId>
	</lga>
	<lga>
		<id>428</id>
		<name>Ingawa</name>
		<state_id>313</state_id>
		<state_code>KT</state_code>
		<state_name>Katsina</state_name>
		<country_id>161</country_id>
		<country_code>NG</country_code>
		<country_name>Nigeria</country_name>
		<latitude>12.63972222</latitude>
		<longitude>8.05027778</longitude>
		<wikiDataId>Q15043610</wikiDataId>
	</lga>
	<lga>
		<id>429</id>
		<name>Jibia</name>
		<state_id>313</state_id>
		<state_code>KT</state_code>
		<state_name>Katsina</state_name>
		<country_id>161</country_id>
		<country_code>NG</country_code>
		<country_name>Nigeria</country_name>
		<latitude>13.09166667</latitude>
		<longitude>7.22638889</longitude>
		<wikiDataId>Q6192032</wikiDataId>
	</lga>
	<lga>
		<id>430</id>
		<name>Kafur</name>
		<state_id>313</state_id>
		<state_code>KT</state_code>
		<state_name>Katsina</state_name>
		<country_id>161</country_id>
		<country_code>NG</country_code>
		<country_name>Nigeria</country_name>
		<latitude>11.65</latitude>
		<longitude>7.7</longitude>
		<wikiDataId>Q6346293</wikiDataId>
	</lga>
	<lga>
		<id>431</id>
		<name>Kaita</name>
		<state_id>313</state_id>
		<state_code>KT</state_code>
		<state_name>Katsina</state_name>
		<country_id>161</country_id>
		<country_code>NG</country_code>
		<country_name>Nigeria</country_name>
		<latitude>13.08055556</latitude>
		<longitude>7.75388889</longitude>
		<wikiDataId>Q6348575</wikiDataId>
	</lga>
	<lga>
		<id>432</id>
		<name>Kankara</name>
		<state_id>313</state_id>
		<state_code>KT</state_code>
		<state_name>Katsina</state_name>
		<country_id>161</country_id>
		<country_code>NG</country_code>
		<country_name>Nigeria</country_name>
		<latitude>11.930319</latitude>
		<longitude>7.412649</longitude>
		<wikiDataId>Q6363677</wikiDataId>
	</lga>
	<lga>
		<id>433</id>
		<name>Kankia</name>
		<state_id>313</state_id>
		<state_code>KT</state_code>
		<state_name>Katsina</state_name>
		<country_id>161</country_id>
		<country_code>NG</country_code>
		<country_name>Nigeria</country_name>
		<latitude>12.46666667</latitude>
		<longitude>7.8</longitude>
		<wikiDataId>Q6363735</wikiDataId>
	</lga>
	<lga>
		<id>434</id>
		<name>Katsina</name>
		<state_id>313</state_id>
		<state_code>KT</state_code>
		<state_name>Katsina</state_name>
		<country_id>161</country_id>
		<country_code>NG</country_code>
		<country_name>Nigeria</country_name>
		<latitude>12.98888889</latitude>
		<longitude>7.60083333</longitude>
		<wikiDataId>Q937487</wikiDataId>
	</lga>
	<lga>
		<id>435</id>
		<name>Kurfi</name>
		<state_id>313</state_id>
		<state_code>KT</state_code>
		<state_name>Katsina</state_name>
		<country_id>161</country_id>
		<country_code>NG</country_code>
		<country_name>Nigeria</country_name>
		<latitude>12.66611111</latitude>
		<longitude>7.48305556</longitude>
		<wikiDataId>Q6445904</wikiDataId>
	</lga>
	<lga>
		<id>436</id>
		<name>Kusada</name>
		<state_id>313</state_id>
		<state_code>KT</state_code>
		<state_name>Katsina</state_name>
		<country_id>161</country_id>
		<country_code>NG</country_code>
		<country_name>Nigeria</country_name>
		<latitude>12.46666667</latitude>
		<longitude>7.98333333</longitude>
		<wikiDataId>Q6447735</wikiDataId>
	</lga>
	<lga>
		<id>437</id>
		<name>Mai'Adua</name>
		<state_id>313</state_id>
		<state_code>KT</state_code>
		<state_name>Katsina</state_name>
		<country_id>161</country_id>
		<country_code>NG</country_code>
		<country_name>Nigeria</country_name>
		<latitude>13.19055556</latitude>
		<longitude>8.21166667</longitude>
		<wikiDataId>Q6735083</wikiDataId>
	</lga>
	<lga>
		<id>438</id>
		<name>Malumfashi</name>
		<state_id>313</state_id>
		<state_code>KT</state_code>
		<state_name>Katsina</state_name>
		<country_id>161</country_id>
		<country_code>NG</country_code>
		<country_name>Nigeria</country_name>
		<latitude>11.8</latitude>
		<longitude>7.61666667</longitude>
		<wikiDataId>Q6744962</wikiDataId>
	</lga>
	<lga>
		<id>439</id>
		<name>Mani</name>
		<state_id>313</state_id>
		<state_code>KT</state_code>
		<state_name>Katsina</state_name>
		<country_id>161</country_id>
		<country_code>NG</country_code>
		<country_name>Nigeria</country_name>
		<latitude>12.85611111</latitude>
		<longitude>7.87444444</longitude>
		<wikiDataId>Q6749389</wikiDataId>
	</lga>
	<lga>
		<id>440</id>
		<name>Mashi</name>
		<state_id>313</state_id>
		<state_code>KT</state_code>
		<state_name>Katsina</state_name>
		<country_id>161</country_id>
		<country_code>NG</country_code>
		<country_name>Nigeria</country_name>
		<latitude>13.1</latitude>
		<longitude>8</longitude>
		<wikiDataId>Q6783140</wikiDataId>
	</lga>
	<lga>
		<id>441</id>
		<name>Matazu</name>
		<state_id>313</state_id>
		<state_code>KT</state_code>
		<state_name>Katsina</state_name>
		<country_id>161</country_id>
		<country_code>NG</country_code>
		<country_name>Nigeria</country_name>
		<latitude>12.2333</latitude>
		<longitude>7.66667</longitude>
		<wikiDataId>Q6786185</wikiDataId>
	</lga>
	<lga>
		<id>442</id>
		<name>Musawa</name>
		<state_id>313</state_id>
		<state_code>KT</state_code>
		<state_name>Katsina</state_name>
		<country_id>161</country_id>
		<country_code>NG</country_code>
		<country_name>Nigeria</country_name>
		<latitude>12.12944444</latitude>
		<longitude>7.66888889</longitude>
		<wikiDataId>Q10474195</wikiDataId>
	</lga>
	<lga>
		<id>443</id>
		<name>Rimi</name>
		<state_id>313</state_id>
		<state_code>KT</state_code>
		<state_name>Katsina</state_name>
		<country_id>161</country_id>
		<country_code>NG</country_code>
		<country_name>Nigeria</country_name>
		<latitude>12.85</latitude>
		<longitude>7.71555556</longitude>
		<wikiDataId>Q7334455</wikiDataId>
	</lga>
	<lga>
		<id>444</id>
		<name>Sabuwa</name>
		<state_id>313</state_id>
		<state_code>KT</state_code>
		<state_name>Katsina</state_name>
		<country_id>161</country_id>
		<country_code>NG</country_code>
		<country_name>Nigeria</country_name>
		<latitude>11.3</latitude>
		<longitude>7.11666667</longitude>
		<wikiDataId>Q7396498</wikiDataId>
	</lga>
	<lga>
		<id>445</id>
		<name>Safana</name>
		<state_id>313</state_id>
		<state_code>KT</state_code>
		<state_name>Katsina</state_name>
		<country_id>161</country_id>
		<country_code>NG</country_code>
		<country_name>Nigeria</country_name>
		<latitude>12.5</latitude>
		<longitude>7.23333333</longitude>
		<wikiDataId>Q7398366</wikiDataId>
	</lga>
	<lga>
		<id>446</id>
		<name>Sandamu</name>
		<state_id>313</state_id>
		<state_code>KT</state_code>
		<state_name>Katsina</state_name>
		<country_id>161</country_id>
		<country_code>NG</country_code>
		<country_name>Nigeria</country_name>
		<latitude>12.93333333</latitude>
		<longitude>8.36666667</longitude>
		<wikiDataId>Q7415981</wikiDataId>
	</lga>
	<lga>
		<id>447</id>
		<name>Zango</name>
		<state_id>313</state_id>
		<state_code>KT</state_code>
		<state_name>Katsina</state_name>
		<country_id>161</country_id>
		<country_code>NG</country_code>
		<country_name>Nigeria</country_name>
		<latitude>12.93333333</latitude>
		<longitude>8.53333333</longitude>
		<wikiDataId>Q8066198</wikiDataId>
	</lga>
</lgas>
