<?xml version="1.0" encoding="utf-8"?>
<lgas>
	<lga>
		<id>526</id>
		<name>Akwanga</name>
		<state_id>301</state_id>
		<state_code>NA</state_code>
		<state_name>Nasarawa</state_name>
		<country_id>161</country_id>
		<country_code>NG</country_code>
		<country_name>Nigeria</country_name>
		<latitude>8.91666667</latitude>
		<longitude>8.38333333</longitude>
		<wikiDataId>Q4702008</wikiDataId>
	</lga>
	<lga>
		<id>527</id>
		<name>Awe</name>
		<state_id>301</state_id>
		<state_code>NA</state_code>
		<state_name>Nasarawa</state_name>
		<country_id>161</country_id>
		<country_code>NG</country_code>
		<country_name>Nigeria</country_name>
		<latitude>7.823611</latitude>
		<longitude>3.95</longitude>
		<wikiDataId>Q11010622</wikiDataId>
	</lga>
	<lga>
		<id>528</id>
		<name>Doma</name>
		<state_id>301</state_id>
		<state_code>NA</state_code>
		<state_name>Nasarawa</state_name>
		<country_id>161</country_id>
		<country_code>NG</country_code>
		<country_name>Nigeria</country_name>
		<latitude>8.396241</latitude>
		<longitude>8.35864</longitude>
		<wikiDataId>Q5289773</wikiDataId>
	</lga>
	<lga>
		<id>529</id>
		<name>Karu</name>
		<state_id>301</state_id>
		<state_code>NA</state_code>
		<state_name>Nasarawa</state_name>
		<country_id>161</country_id>
		<country_code>NG</country_code>
		<country_name>Nigeria</country_name>
		<latitude>9.019231</latitude>
		<longitude>7.613516</longitude>
		<wikiDataId>Q6373591</wikiDataId>
	</lga>
	<lga>
		<id>530</id>
		<name>Keana</name>
		<state_id>301</state_id>
		<state_code>NA</state_code>
		<state_name>Nasarawa</state_name>
		<country_id>161</country_id>
		<country_code>NG</country_code>
		<country_name>Nigeria</country_name>
		<latitude>8.147346</latitude>
		<longitude>8.800478</longitude>
		<wikiDataId>Q6382153</wikiDataId>
	</lga>
	<lga>
		<id>531</id>
		<name>Keffi</name>
		<state_id>301</state_id>
		<state_code>NA</state_code>
		<state_name>Nasarawa</state_name>
		<country_id>161</country_id>
		<country_code>NG</country_code>
		<country_name>Nigeria</country_name>
		<latitude>8.8464</latitude>
		<longitude>7.8733</longitude>
		<wikiDataId>Q3510599</wikiDataId>
	</lga>
	<lga>
		<id>532</id>
		<name>Kokona</name>
		<state_id>301</state_id>
		<state_code>NA</state_code>
		<state_name>Nasarawa</state_name>
		<country_id>161</country_id>
		<country_code>NG</country_code>
		<country_name>Nigeria</country_name>
		<latitude>8.85</latitude>
		<longitude>5.08333333</longitude>
		<wikiDataId>Q6426774</wikiDataId>
	</lga>
	<lga>
		<id>533</id>
		<name>Lafia</name>
		<state_id>301</state_id>
		<state_code>NA</state_code>
		<state_name>Nasarawa</state_name>
		<country_id>161</country_id>
		<country_code>NG</country_code>
		<country_name>Nigeria</country_name>
		<latitude>8.49166667</latitude>
		<longitude>8.51666667</longitude>
		<wikiDataId>Q1023721</wikiDataId>
	</lga>
	<lga>
		<id>534</id>
		<name>Nasarawa</name>
		<state_id>301</state_id>
		<state_code>NA</state_code>
		<state_name>Nasarawa</state_name>
		<country_id>161</country_id>
		<country_code>NG</country_code>
		<country_name>Nigeria</country_name>
		<latitude>8.53333333</latitude>
		<longitude>8.3</longitude>
		<wikiDataId>Q836645</wikiDataId>
	</lga>
	<lga>
		<id>535</id>
		<name>Nasarawa Egon</name>
		<state_id>301</state_id>
		<state_code>NA</state_code>
		<state_name>Nasarawa</state_name>
		<country_id>161</country_id>
		<country_code>NG</country_code>
		<country_name>Nigeria</country_name>
		<latitude>8.741115</latitude>
		<longitude>8.542192</longitude>
		<wikiDataId>Q17109172</wikiDataId>
	</lga>
	<lga>
		<id>536</id>
		<name>Obi</name>
		<state_id>301</state_id>
		<state_code>NA</state_code>
		<state_name>Nasarawa</state_name>
		<country_id>161</country_id>
		<country_code>NG</country_code>
		<country_name>Nigeria</country_name>
		<latitude>7</latitude>
		<longitude>8.25</longitude>
		<wikiDataId>Q4207508</wikiDataId>
	</lga>
	<lga>
		<id>537</id>
		<name>Toto</name>
		<state_id>301</state_id>
		<state_code>NA</state_code>
		<state_name>Nasarawa</state_name>
		<country_id>161</country_id>
		<country_code>NG</country_code>
		<country_name>Nigeria</country_name>
		<latitude>8.388021</latitude>
		<longitude>7.078199</longitude>
		<wikiDataId>Q7828363</wikiDataId>
	</lga>
	<lga>
		<id>538</id>
		<name>Wamba</name>
		<state_id>301</state_id>
		<state_code>NA</state_code>
		<state_name>Nasarawa</state_name>
		<country_id>161</country_id>
		<country_code>NG</country_code>
		<country_name>Nigeria</country_name>
		<latitude>8.93333333</latitude>
		<longitude>8.6</longitude>
		<wikiDataId>Q3331559</wikiDataId>
	</lga>
</lgas>
