<?xml version="1.0" encoding="utf-8"?>
<lgas>
	<lga>
		<id>602</id>
		<name>Ayedaade</name>
		<state_id>322</state_id>
		<state_code>OS</state_code>
		<state_name>Osun</state_name>
		<country_id>161</country_id>
		<country_code>NG</country_code>
		<country_name>Nigeria</country_name>
		<latitude>7.31666667</latitude>
		<longitude>4.35</longitude>
		<wikiDataId>Q4699405</wikiDataId>
	</lga>
	<lga>
		<id>603</id>
		<name>Aiyedire</name>
		<state_id>322</state_id>
		<state_code>OS</state_code>
		<state_name>Osun</state_name>
		<country_id>161</country_id>
		<country_code>NG</country_code>
		<country_name>Nigeria</country_name>
		<latitude>7.56666667</latitude>
		<longitude>4.23333333</longitude>
		<wikiDataId>Q4699407</wikiDataId>
	</lga>
	<lga>
		<id>604</id>
		<name>Atakunmosa East</name>
		<state_id>322</state_id>
		<state_code>OS</state_code>
		<state_name>Osun</state_name>
		<country_id>161</country_id>
		<country_code>NG</country_code>
		<country_name>Nigeria</country_name>
		<latitude>7.48333</latitude>
		<longitude>4.78333</longitude>
		<wikiDataId>Q4812674</wikiDataId>
	</lga>
	<lga>
		<id>605</id>
		<name>Atakunmosa West</name>
		<state_id>322</state_id>
		<state_code>OS</state_code>
		<state_name>Osun</state_name>
		<country_id>161</country_id>
		<country_code>NG</country_code>
		<country_name>Nigeria</country_name>
		<latitude>7.55</latitude>
		<longitude>4.66667</longitude>
		<wikiDataId>Q4812675</wikiDataId>
	</lga>
	<lga>
		<id>606</id>
		<name>Boluwaduro</name>
		<state_id>322</state_id>
		<state_code>OS</state_code>
		<state_name>Osun</state_name>
		<country_id>161</country_id>
		<country_code>NG</country_code>
		<country_name>Nigeria</country_name>
		<latitude>7.9</latitude>
		<longitude>4.81666667</longitude>
		<wikiDataId>Q4940287</wikiDataId>
	</lga>
	<lga>
		<id>607</id>
		<name>Boripe</name>
		<state_id>322</state_id>
		<state_code>OS</state_code>
		<state_name>Osun</state_name>
		<country_id>161</country_id>
		<country_code>NG</country_code>
		<country_name>Nigeria</country_name>
		<latitude>7.86666667</latitude>
		<longitude>4.65833333</longitude>
		<wikiDataId>Q4945164</wikiDataId>
	</lga>
	<lga>
		<id>608</id>
		<name>Ede North</name>
		<state_id>322</state_id>
		<state_code>OS</state_code>
		<state_name>Osun</state_name>
		<country_id>161</country_id>
		<country_code>NG</country_code>
		<country_name>Nigeria</country_name>
		<latitude>7.73333333</latitude>
		<longitude>4.48333333</longitude>
		<wikiDataId>Q5336721</wikiDataId>
	</lga>
	<lga>
		<id>609</id>
		<name>Ede South</name>
		<state_id>322</state_id>
		<state_code>OS</state_code>
		<state_name>Osun</state_name>
		<country_id>161</country_id>
		<country_code>NG</country_code>
		<country_name>Nigeria</country_name>
		<latitude>7.7</latitude>
		<longitude>4.45</longitude>
		<wikiDataId>Q5336722</wikiDataId>
	</lga>
	<lga>
		<id>610</id>
		<name>Egbedore</name>
		<state_id>322</state_id>
		<state_code>OS</state_code>
		<state_name>Osun</state_name>
		<country_id>161</country_id>
		<country_code>NG</country_code>
		<country_name>Nigeria</country_name>
		<latitude>7.81666667</latitude>
		<longitude>4.43333333</longitude>
		<wikiDataId>Q3511620</wikiDataId>
	</lga>
	<lga>
		<id>611</id>
		<name>Ejigbo</name>
		<state_id>322</state_id>
		<state_code>OS</state_code>
		<state_name>Osun</state_name>
		<country_id>161</country_id>
		<country_code>NG</country_code>
		<country_name>Nigeria</country_name>
		<latitude>7.9</latitude>
		<longitude>4.315</longitude>
		<wikiDataId>Q5350128</wikiDataId>
	</lga>
	<lga>
		<id>612</id>
		<name>Ife Central</name>
		<state_id>322</state_id>
		<state_code>OS</state_code>
		<state_name>Osun</state_name>
		<country_id>161</country_id>
		<country_code>NG</country_code>
		<country_name>Nigeria</country_name>
		<latitude>7.55</latitude>
		<longitude>4.53333333</longitude>
		<wikiDataId>Q3509568</wikiDataId>
	</lga>
	<lga>
		<id>613</id>
		<name>Ife East</name>
		<state_id>322</state_id>
		<state_code>OS</state_code>
		<state_name>Osun</state_name>
		<country_id>161</country_id>
		<country_code>NG</country_code>
		<country_name>Nigeria</country_name>
		<latitude>7.45</latitude>
		<longitude>4.6</longitude>
		<wikiDataId>Q5991130</wikiDataId>
	</lga>
	<lga>
		<id>614</id>
		<name>Ife North</name>
		<state_id>322</state_id>
		<state_code>OS</state_code>
		<state_name>Osun</state_name>
		<country_id>161</country_id>
		<country_code>NG</country_code>
		<country_name>Nigeria</country_name>
		<latitude>7.36666667</latitude>
		<longitude>4.46666667</longitude>
		<wikiDataId>Q11008758</wikiDataId>
	</lga>
	<lga>
		<id>615</id>
		<name>Ife South</name>
		<state_id>322</state_id>
		<state_code>OS</state_code>
		<state_name>Osun</state_name>
		<country_id>161</country_id>
		<country_code>NG</country_code>
		<country_name>Nigeria</country_name>
		<latitude>7.2</latitude>
		<longitude>4.6</longitude>
		<wikiDataId>Q5991132</wikiDataId>
	</lga>
	<lga>
		<id>616</id>
		<name>Ifedayo</name>
		<state_id>322</state_id>
		<state_code>OS</state_code>
		<state_name>Osun</state_name>
		<country_id>161</country_id>
		<country_code>NG</country_code>
		<country_name>Nigeria</country_name>
		<latitude>7.95</latitude>
		<longitude>4.98333333</longitude>
		<wikiDataId>Q5991148</wikiDataId>
	</lga>
	<lga>
		<id>617</id>
		<name>Ifelodun</name>
		<state_id>322</state_id>
		<state_code>OS</state_code>
		<state_name>Osun</state_name>
		<country_id>161</country_id>
		<country_code>NG</country_code>
		<country_name>Nigeria</country_name>
		<latitude>7.91667</latitude>
		<longitude>4.66667</longitude>
		<wikiDataId>Q3509603</wikiDataId>
	</lga>
	<lga>
		<id>618</id>
		<name>Ila</name>
		<state_id>322</state_id>
		<state_code>OS</state_code>
		<state_name>Osun</state_name>
		<country_id>161</country_id>
		<country_code>NG</country_code>
		<country_name>Nigeria</country_name>
		<latitude>8.01666667</latitude>
		<longitude>4.9</longitude>
		<wikiDataId>Q3305665</wikiDataId>
	</lga>
	<lga>
		<id>619</id>
		<name>Ilesa East</name>
		<state_id>322</state_id>
		<state_code>OS</state_code>
		<state_name>Osun</state_name>
		<country_id>161</country_id>
		<country_code>NG</country_code>
		<country_name>Nigeria</country_name>
		<latitude>7.61666667</latitude>
		<longitude>4.76666667</longitude>
		<wikiDataId>Q3509533</wikiDataId>
	</lga>
	<lga>
		<id>620</id>
		<name>Ilesa West</name>
		<state_id>322</state_id>
		<state_code>OS</state_code>
		<state_name>Osun</state_name>
		<country_id>161</country_id>
		<country_code>NG</country_code>
		<country_name>Nigeria</country_name>
		<latitude>7.65</latitude>
		<longitude>4.71666667</longitude>
		<wikiDataId>Q3509434</wikiDataId>
	</lga>
	<lga>
		<id>621</id>
		<name>Irepodun</name>
		<state_id>322</state_id>
		<state_code>OS</state_code>
		<state_name>Osun</state_name>
		<country_id>161</country_id>
		<country_code>NG</country_code>
		<country_name>Nigeria</country_name>
		<latitude>7.83333</latitude>
		<longitude>4.48333</longitude>
		<wikiDataId>Q3509552</wikiDataId>
	</lga>
	<lga>
		<id>622</id>
		<name>Irewole</name>
		<state_id>322</state_id>
		<state_code>OS</state_code>
		<state_name>Osun</state_name>
		<country_id>161</country_id>
		<country_code>NG</country_code>
		<country_name>Nigeria</country_name>
		<latitude>7.41666667</latitude>
		<longitude>4.21666667</longitude>
		<wikiDataId>Q3509478</wikiDataId>
	</lga>
	<lga>
		<id>623</id>
		<name>Isokan</name>
		<state_id>322</state_id>
		<state_code>OS</state_code>
		<state_name>Osun</state_name>
		<country_id>161</country_id>
		<country_code>NG</country_code>
		<country_name>Nigeria</country_name>
		<latitude>7.3</latitude>
		<longitude>4.18333333</longitude>
		<wikiDataId>Q3510368</wikiDataId>
	</lga>
	<lga>
		<id>624</id>
		<name>Iwo</name>
		<state_id>322</state_id>
		<state_code>OS</state_code>
		<state_name>Osun</state_name>
		<country_id>161</country_id>
		<country_code>NG</country_code>
		<country_name>Nigeria</country_name>
		<latitude>7.63333333</latitude>
		<longitude>4.18333333</longitude>
		<wikiDataId>Q1665608</wikiDataId>
	</lga>
	<lga>
		<id>625</id>
		<name>Obokun</name>
		<state_id>322</state_id>
		<state_code>OS</state_code>
		<state_name>Osun</state_name>
		<country_id>161</country_id>
		<country_code>NG</country_code>
		<country_name>Nigeria</country_name>
		<latitude>7.78333333</latitude>
		<longitude>4.76666667</longitude>
		<wikiDataId>Q7075260</wikiDataId>
	</lga>
	<lga>
		<id>626</id>
		<name>Odo-Otin</name>
		<state_id>322</state_id>
		<state_code>OS</state_code>
		<state_name>Osun</state_name>
		<country_id>161</country_id>
		<country_code>NG</country_code>
		<country_name>Nigeria</country_name>
		<latitude>8.01666667</latitude>
		<longitude>4.7</longitude>
		<wikiDataId>Q3509495</wikiDataId>
	</lga>
	<lga>
		<id>627</id>
		<name>Ola-Oluwa</name>
		<state_id>322</state_id>
		<state_code>OS</state_code>
		<state_name>Osun</state_name>
		<country_id>161</country_id>
		<country_code>NG</country_code>
		<country_name>Nigeria</country_name>
		<latitude>7.78333333</latitude>
		<longitude>4.21666667</longitude>
		<wikiDataId>Q3510394</wikiDataId>
	</lga>
	<lga>
		<id>628</id>
		<name>Olorunda</name>
		<state_id>322</state_id>
		<state_code>OS</state_code>
		<state_name>Osun</state_name>
		<country_id>161</country_id>
		<country_code>NG</country_code>
		<country_name>Nigeria</country_name>
		<latitude>7.86666667</latitude>
		<longitude>4.58333333</longitude>
		<wikiDataId>Q3509362</wikiDataId>
	</lga>
	<lga>
		<id>629</id>
		<name>Oriade</name>
		<state_id>322</state_id>
		<state_code>OS</state_code>
		<state_name>Osun</state_name>
		<country_id>161</country_id>
		<country_code>NG</country_code>
		<country_name>Nigeria</country_name>
		<latitude>7.58333333</latitude>
		<longitude>4.86666667</longitude>
		<wikiDataId>Q3510511</wikiDataId>
	</lga>
	<lga>
		<id>630</id>
		<name>Orolu</name>
		<state_id>322</state_id>
		<state_code>OS</state_code>
		<state_name>Osun</state_name>
		<country_id>161</country_id>
		<country_code>NG</country_code>
		<country_name>Nigeria</country_name>
		<latitude>7.9</latitude>
		<longitude>4.45</longitude>
		<wikiDataId>Q3509498</wikiDataId>
	</lga>
	<lga>
		<id>631</id>
		<name>Osogbo</name>
		<state_id>322</state_id>
		<state_code>OS</state_code>
		<state_name>Osun</state_name>
		<country_id>161</country_id>
		<country_code>NG</country_code>
		<country_name>Nigeria</country_name>
		<latitude>7.76666667</latitude>
		<longitude>4.56666667</longitude>
		<wikiDataId>Q868203</wikiDataId>
	</lga>
</lgas>
