<?xml version="1.0" encoding="utf-8"?>
<lgas>
	<lga>
		<id>728</id>
		<name>Ardo Kola</name>
		<state_id>319</state_id>
		<state_code>TA</state_code>
		<state_name>Taraba</state_name>
		<country_id>161</country_id>
		<country_code>NG</country_code>
		<country_name>Nigeria</country_name>
		<latitude>8.8467</latitude>
		<longitude>11.2067</longitude>
		<wikiDataId>Q4788221</wikiDataId>
	</lga>
	<lga>
		<id>729</id>
		<name>Bali</name>
		<state_id>319</state_id>
		<state_code>TA</state_code>
		<state_name>Taraba</state_name>
		<country_id>161</country_id>
		<country_code>NG</country_code>
		<country_name>Nigeria</country_name>
		<latitude>7.854286164866859</latitude>
		<longitude>10.963562199223984</longitude>
		<wikiDataId>Q3125978</wikiDataId>
	</lga>
	<lga>
		<id>730</id>
		<name>Donga</name>
		<state_id>319</state_id>
		<state_code>TA</state_code>
		<state_name>Taraba</state_name>
		<country_id>161</country_id>
		<country_code>NG</country_code>
		<country_name>Nigeria</country_name>
		<latitude>7.55</latitude>
		<longitude>10.28333333</longitude>
		<wikiDataId>Q5295795</wikiDataId>
	</lga>
	<lga>
		<id>731</id>
		<name>Gashaka</name>
		<state_id>319</state_id>
		<state_code>TA</state_code>
		<state_name>Taraba</state_name>
		<country_id>161</country_id>
		<country_code>NG</country_code>
		<country_name>Nigeria</country_name>
		<latitude>7.506556</latitude>
		<longitude>11.364155</longitude>
		<wikiDataId>Q5603451</wikiDataId>
	</lga>
	<lga>
		<id>732</id>
		<name>Gassol</name>
		<state_id>319</state_id>
		<state_code>TA</state_code>
		<state_name>Taraba</state_name>
		<country_id>161</country_id>
		<country_code>NG</country_code>
		<country_name>Nigeria</country_name>
		<latitude>8.4</latitude>
		<longitude>10.5333</longitude>
		<wikiDataId>Q3510096</wikiDataId>
	</lga>
	<lga>
		<id>733</id>
		<name>Ibi</name>
		<state_id>319</state_id>
		<state_code>TA</state_code>
		<state_name>Taraba</state_name>
		<country_id>161</country_id>
		<country_code>NG</country_code>
		<country_name>Nigeria</country_name>
		<latitude>8.31666667</latitude>
		<longitude>9.85</longitude>
		<wikiDataId>Q5984020</wikiDataId>
	</lga>
	<lga>
		<id>734</id>
		<name>Jalingo</name>
		<state_id>319</state_id>
		<state_code>TA</state_code>
		<state_name>Taraba</state_name>
		<country_id>161</country_id>
		<country_code>NG</country_code>
		<country_name>Nigeria</country_name>
		<latitude>8.9</latitude>
		<longitude>11.36666667</longitude>
		<wikiDataId>Q1023720</wikiDataId>
	</lga>
	<lga>
		<id>735</id>
		<name>Karim Lamido</name>
		<state_id>319</state_id>
		<state_code>TA</state_code>
		<state_name>Taraba</state_name>
		<country_id>161</country_id>
		<country_code>NG</country_code>
		<country_name>Nigeria</country_name>
		<latitude>9.2</latitude>
		<longitude>10.8833</longitude>
		<wikiDataId>Q6370612</wikiDataId>
	</lga>
	<lga>
		<id>736</id>
		<name>Kurmi</name>
		<state_id>319</state_id>
		<state_code>TA</state_code>
		<state_name>Taraba</state_name>
		<country_id>161</country_id>
		<country_code>NG</country_code>
		<country_name>Nigeria</country_name>
		<latitude>8.708857</latitude>
		<longitude>10.080541</longitude>
		<wikiDataId>Q6446184</wikiDataId>
	</lga>
	<lga>
		<id>737</id>
		<name>Lau</name>
		<state_id>319</state_id>
		<state_code>TA</state_code>
		<state_name>Taraba</state_name>
		<country_id>161</country_id>
		<country_code>NG</country_code>
		<country_name>Nigeria</country_name>
		<latitude>9.18694444</latitude>
		<longitude>11.42</longitude>
		<wikiDataId>Q6497586</wikiDataId>
	</lga>
	<lga>
		<id>738</id>
		<name>Sardauna</name>
		<state_id>319</state_id>
		<state_code>TA</state_code>
		<state_name>Taraba</state_name>
		<country_id>161</country_id>
		<country_code>NG</country_code>
		<country_name>Nigeria</country_name>
		<latitude>6.95</latitude>
		<longitude>11.116667</longitude>
		<wikiDataId>Q7423783</wikiDataId>
	</lga>
	<lga>
		<id>739</id>
		<name>Takum</name>
		<state_id>319</state_id>
		<state_code>TA</state_code>
		<state_name>Taraba</state_name>
		<country_id>161</country_id>
		<country_code>NG</country_code>
		<country_name>Nigeria</country_name>
		<latitude>7.25</latitude>
		<longitude>9.98333333</longitude>
		<wikiDataId>Q7678554</wikiDataId>
	</lga>
	<lga>
		<id>740</id>
		<name>Ussa</name>
		<state_id>319</state_id>
		<state_code>TA</state_code>
		<state_name>Taraba</state_name>
		<country_id>161</country_id>
		<country_code>NG</country_code>
		<country_name>Nigeria</country_name>
		<latitude>7.11666667</latitude>
		<longitude>10.08333333</longitude>
		<wikiDataId>Q3331575</wikiDataId>
	</lga>
	<lga>
		<id>741</id>
		<name>Wukari</name>
		<state_id>319</state_id>
		<state_code>TA</state_code>
		<state_name>Taraba</state_name>
		<country_id>161</country_id>
		<country_code>NG</country_code>
		<country_name>Nigeria</country_name>
		<latitude>7.85</latitude>
		<longitude>9.78333333</longitude>
		<wikiDataId>Q3509190</wikiDataId>
	</lga>
	<lga>
		<id>742</id>
		<name>Yorro</name>
		<state_id>319</state_id>
		<state_code>TA</state_code>
		<state_name>Taraba</state_name>
		<country_id>161</country_id>
		<country_code>NG</country_code>
		<country_name>Nigeria</country_name>
		<latitude>8.749986</latitude>
		<longitude>11.616698</longitude>
		<wikiDataId>Q8055852</wikiDataId>
	</lga>
	<lga>
		<id>743</id>
		<name>Zing</name>
		<state_id>319</state_id>
		<state_code>TA</state_code>
		<state_name>Taraba</state_name>
		<country_id>161</country_id>
		<country_code>NG</country_code>
		<country_name>Nigeria</country_name>
		<latitude>8.993239</latitude>
		<longitude>11.740887</longitude>
		<wikiDataId>Q8072371</wikiDataId>
	</lga>
</lgas>
