enugu:
  - id: 259
    name: Aninri
    state_id: 289
    state_code: EN
    state_name: Enugu
    country_id: 161
    country_code: NG
    country_name: Nigeria
    latitude: 6.05
    longitude: 7.58333333
    wikiDataId: Q4765240
  - id: 260
    name: Awgu
    state_id: 289
    state_code: EN
    state_name: Enugu
    country_id: 161
    country_code: NG
    country_name: Nigeria
    latitude: 6.1169
    longitude: 7.476
    wikiDataId: Q4830051
  - id: 261
    name: Enugu East
    state_id: 289
    state_code: EN
    state_name: Enugu
    country_id: 161
    country_code: NG
    country_name: Nigeria
    latitude: 6.53333
    longitude: 7.53333
    wikiDataId: Q5380873
  - id: 262
    name: Enugu North
    state_id: 289
    state_code: EN
    state_name: Enugu
    country_id: 161
    country_code: NG
    country_name: Nigeria
    latitude: 6.46666667
    longitude: 7.51666667
    wikiDataId: Q5380874
  - id: 263
    name: Enugu South
    state_id: 289
    state_code: EN
    state_name: Enugu
    country_id: 161
    country_code: NG
    country_name: Nigeria
    latitude: 6.4
    longitude: 7.5
    wikiDataId: Q5380875
  - id: 264
    name: Ezeagu
    state_id: 289
    state_code: EN
    state_name: Enugu
    country_id: 161
    country_code: NG
    country_name: Nigeria
    latitude: 6.75
    longitude: 7.33333333
    wikiDataId: Q5423113
  - id: 265
    name: Igbo Etiti
    state_id: 289
    state_code: EN
    state_name: Enugu
    country_id: 161
    country_code: NG
    country_name: Nigeria
    latitude: 6.66667
    longitude: 7.36667
    wikiDataId: Q5991568
  - id: 266
    name: Igbo Eze North
    state_id: 289
    state_code: EN
    state_name: Enugu
    country_id: 161
    country_code: NG
    country_name: Nigeria
    latitude: 6.98333
    longitude: 7.45
    wikiDataId: Q5991578
  - id: 267
    name: Igbo Eze South
    state_id: 289
    state_code: EN
    state_name: Enugu
    country_id: 161
    country_code: NG
    country_name: Nigeria
    latitude: 6.91667
    longitude: 7.4
    wikiDataId: Q5991584
  - id: 268
    name: Isi-Uzo
    state_id: 289
    state_code: EN
    state_name: Enugu
    country_id: 161
    country_code: NG
    country_name: Nigeria
    latitude: 6.78333333
    longitude: 7.71666667
    wikiDataId: Q11274430
  - id: 269
    name: Nkanu East
    state_id: 289
    state_code: EN
    state_name: Enugu
    country_id: 161
    country_code: NG
    country_name: Nigeria
    latitude: 6.33333333
    longitude: 7.65
    wikiDataId: Q7042529
  - id: 270
    name: Nkanu West
    state_id: 289
    state_code: EN
    state_name: Enugu
    country_id: 161
    country_code: NG
    country_name: Nigeria
    latitude: 6.3
    longitude: 7.55
    wikiDataId: Q11058668
  - id: 271
    name: Nsukka
    state_id: 289
    state_code: EN
    state_name: Enugu
    country_id: 161
    country_code: NG
    country_name: Nigeria
    latitude: 6.85666667
    longitude: 7.39583333
    wikiDataId: Q681198
  - id: 272
    name: Oji-River
    state_id: 289
    state_code: EN
    state_name: Enugu
    country_id: 161
    country_code: NG
    country_name: Nigeria
    latitude: 6.26666667
    longitude: 7.26666667
    wikiDataId: Q7081610
  - id: 273
    name: Udenu
    state_id: 289
    state_code: EN
    state_name: Enugu
    country_id: 161
    country_code: NG
    country_name: Nigeria
    latitude: 6.91667
    longitude: 7.51667
    wikiDataId: Q7877168
  - id: 274
    name: Udi
    state_id: 289
    state_code: EN
    state_name: Enugu
    country_id: 161
    country_code: NG
    country_name: Nigeria
    latitude: 6.31667
    longitude: 7.43333
    wikiDataId: Q7877213
  - id: 275
    name: Uzo-Uwani
    state_id: 289
    state_code: EN
    state_name: Enugu
    country_id: 161
    country_code: NG
    country_name: Nigeria
    latitude: 6.75
    longitude: 7.2
    wikiDataId: Q7905110
