kano:
  - id: 370
    name: Ajingi
    state_id: 300
    state_code: KN
    state_name: Kano
    country_id: 161
    country_code: NG
    country_name: Nigeria
    latitude: 11.97
    longitude: 9.03916667
    wikiDataId: Q4699747
  - id: 371
    name: Albasu
    state_id: 300
    state_code: KN
    state_name: Kano
    country_id: 161
    country_code: NG
    country_name: Nigeria
    latitude: 11.67388889
    longitude: 9.14111111
    wikiDataId: Q4709434
  - id: 372
    name: Bagwai
    state_id: 300
    state_code: KN
    state_name: Kano
    country_id: 161
    country_code: NG
    country_name: Nigeria
    latitude: 12.15777778
    longitude: 8.13583333
    wikiDataId: Q4842187
  - id: 373
    name: Bebeji
    state_id: 300
    state_code: KN
    state_name: Kano
    country_id: 161
    country_code: NG
    country_name: Nigeria
    latitude: 11.66666667
    longitude: 8.26666667
    wikiDataId: Q4878426
  - id: 374
    name: Bichi
    state_id: 300
    state_code: KN
    state_name: Kano
    country_id: 161
    country_code: NG
    country_name: Nigeria
    latitude: 12.23416667
    longitude: 8.24111111
    wikiDataId: Q4903607
  - id: 375
    name: Bunkure
    state_id: 300
    state_code: KN
    state_name: Kano
    country_id: 161
    country_code: NG
    country_name: Nigeria
    latitude: 11.7
    longitude: 8.55
    wikiDataId: Q13140410
  - id: 376
    name: Dala
    state_id: 300
    state_code: KN
    state_name: Kano
    country_id: 161
    country_code: NG
    country_name: Nigeria
    latitude: 12.01666667
    longitude: 8.48333333
    wikiDataId: Q5210142
  - id: 377
    name: Dambatta
    state_id: 300
    state_code: KN
    state_name: Kano
    country_id: 161
    country_code: NG
    country_name: Nigeria
    latitude: 12.43305556
    longitude: 8.51527778
    wikiDataId: Q5212087
  - id: 378
    name: Dawakin Kudu
    state_id: 300
    state_code: KN
    state_name: Kano
    country_id: 161
    country_code: NG
    country_name: Nigeria
    latitude: 11.83472222
    longitude: 8.59805556
    wikiDataId: Q5242270
  - id: 379
    name: Dawakin Tofa
    state_id: 300
    state_code: KN
    state_name: Kano
    country_id: 161
    country_code: NG
    country_name: Nigeria
    latitude: 12.10277778
    longitude: 8.33138889
    wikiDataId: Q5242271
  - id: 380
    name: Doguwa
    state_id: 300
    state_code: KN
    state_name: Kano
    country_id: 161
    country_code: NG
    country_name: Nigeria
    latitude: 10.75
    longitude: 8.73333333
    wikiDataId: Q5288494
  - id: 381
    name: Fagge
    state_id: 300
    state_code: KN
    state_name: Kano
    country_id: 161
    country_code: NG
    country_name: Nigeria
    latitude: 12.00666667
    longitude: 8.52916667
    wikiDataId: Q5429405
  - id: 382
    name: Gabasawa
    state_id: 300
    state_code: KN
    state_name: Kano
    country_id: 161
    country_code: NG
    country_name: Nigeria
    latitude: 12.1
    longitude: 8.88333333
    wikiDataId: Q5515278
  - id: 383
    name: Garko
    state_id: 300
    state_code: KN
    state_name: Kano
    country_id: 161
    country_code: NG
    country_name: Nigeria
    latitude: 11.65
    longitude: 8.9
    wikiDataId: Q5523394
  - id: 384
    name: Garun Malam
    state_id: 300
    state_code: KN
    state_name: Kano
    country_id: 161
    country_code: NG
    country_name: Nigeria
    latitude: 11.6833
    longitude: 8.36667
    wikiDataId: Q5524488
  - id: 385
    name: Gaya
    state_id: 300
    state_code: KN
    state_name: Kano
    country_id: 161
    country_code: NG
    country_name: Nigeria
    latitude: 11.86805556
    longitude: 9.01111111
    wikiDataId: Q5528692
  - id: 386
    name: Gezawa
    state_id: 300
    state_code: KN
    state_name: Kano
    country_id: 161
    country_code: NG
    country_name: Nigeria
    latitude: 12.1
    longitude: 8.73333333
    wikiDataId: Q5555061
  - id: 387
    name: Gwale
    state_id: 300
    state_code: KN
    state_name: Kano
    country_id: 161
    country_code: NG
    country_name: Nigeria
    latitude: 11.96666667
    longitude: 8.5
    wikiDataId: Q5623248
  - id: 388
    name: Gwarzo
    state_id: 300
    state_code: KN
    state_name: Kano
    country_id: 161
    country_code: NG
    country_name: Nigeria
    latitude: 11.91666667
    longitude: 7.93333333
    wikiDataId: Q5623352
  - id: 389
    name: Kabo
    state_id: 300
    state_code: KN
    state_name: Kano
    country_id: 161
    country_code: NG
    country_name: Nigeria
    latitude: 11.891463250000001
    longitude: 8.200628471157401
    wikiDataId: Q2428075
  - id: 390
    name: Kano Municipal
    state_id: 300
    state_code: KN
    state_name: Kano
    country_id: 161
    country_code: NG
    country_name: Nigeria
    latitude: 11.95194444
    longitude: 8.54027778
    wikiDataId: Q10313749
  - id: 391
    name: Karaye
    state_id: 300
    state_code: KN
    state_name: Kano
    country_id: 161
    country_code: NG
    country_name: Nigeria
    latitude: 11.78333333
    longitude: 8.01666667
    wikiDataId: Q6368888
  - id: 392
    name: Kibiya
    state_id: 300
    state_code: KN
    state_name: Kano
    country_id: 161
    country_code: NG
    country_name: Nigeria
    latitude: 11.53333333
    longitude: 8.66666667
    wikiDataId: Q6404045
  - id: 393
    name: Kiru
    state_id: 300
    state_code: KN
    state_name: Kano
    country_id: 161
    country_code: NG
    country_name: Nigeria
    latitude: 11.7
    longitude: 8.13333333
    wikiDataId: Q6416264
  - id: 394
    name: Kunchi
    state_id: 300
    state_code: KN
    state_name: Kano
    country_id: 161
    country_code: NG
    country_name: Nigeria
    latitude: 12.50138889
    longitude: 8.27166667
    wikiDataId: Q6444225
  - id: 395
    name: Kura
    state_id: 300
    state_code: KN
    state_name: Kano
    country_id: 161
    country_code: NG
    country_name: Nigeria
    latitude: 11.77138889
    longitude: 8.43027778
    wikiDataId: Q6445487
  - id: 396
    name: Madobi
    state_id: 300
    state_code: KN
    state_name: Kano
    country_id: 161
    country_code: NG
    country_name: Nigeria
    latitude: 11.77722222
    longitude: 8.28833333
    wikiDataId: Q6728324
  - id: 397
    name: Makoda
    state_id: 300
    state_code: KN
    state_name: Kano
    country_id: 161
    country_code: NG
    country_name: Nigeria
    latitude: 12.41861111
    longitude: 8.4325
    wikiDataId: Q6739854
  - id: 398
    name: Minjibir
    state_id: 300
    state_code: KN
    state_name: Kano
    country_id: 161
    country_code: NG
    country_name: Nigeria
    latitude: 12.17833333
    longitude: 8.65916667
    wikiDataId: Q6867755
  - id: 399
    name: Nasarawa
    state_id: 300
    state_code: KN
    state_name: Kano
    country_id: 161
    country_code: NG
    country_name: Nigeria
    latitude: 8.53333333
    longitude: 8.3
    wikiDataId: Q836645
  - id: 400
    name: Rano
    state_id: 300
    state_code: KN
    state_name: Kano
    country_id: 161
    country_code: NG
    country_name: Nigeria
    latitude: 11.55722222
    longitude: 8.58333333
    wikiDataId: Q7293412
  - id: 401
    name: Rimin Gado
    state_id: 300
    state_code: KN
    state_name: Kano
    country_id: 161
    country_code: NG
    country_name: Nigeria
    latitude: 11.965
    longitude: 8.25
    wikiDataId: Q3432111
  - id: 402
    name: Rogo
    state_id: 300
    state_code: KN
    state_name: Kano
    country_id: 161
    country_code: NG
    country_name: Nigeria
    latitude: 11.56666667
    longitude: 7.83333333
    wikiDataId: Q7359427
  - id: 403
    name: Shanono
    state_id: 300
    state_code: KN
    state_name: Kano
    country_id: 161
    country_code: NG
    country_name: Nigeria
    latitude: 12.05
    longitude: 7.98333333
    wikiDataId: Q7489007
  - id: 404
    name: Sumaila
    state_id: 300
    state_code: KN
    state_name: Kano
    country_id: 161
    country_code: NG
    country_name: Nigeria
    latitude: 11.53333333
    longitude: 8.96666667
    wikiDataId: Q7636917
  - id: 405
    name: Takai
    state_id: 300
    state_code: KN
    state_name: Kano
    country_id: 161
    country_code: NG
    country_name: Nigeria
    latitude: 11.4853125
    longitude: 9.156044842198048
    wikiDataId: Q48723575
  - id: 406
    name: Tarauni
    state_id: 300
    state_code: KN
    state_name: Kano
    country_id: 161
    country_code: NG
    country_name: Nigeria
    latitude: 11.96666667
    longitude: 8.56666667
    wikiDataId: Q9081916
  - id: 407
    name: Tofa
    state_id: 300
    state_code: KN
    state_name: Kano
    country_id: 161
    country_code: NG
    country_name: Nigeria
    latitude: 12.05
    longitude: 8.26666667
    wikiDataId: Q7812950
  - id: 408
    name: Tsanyawa
    state_id: 300
    state_code: KN
    state_name: Kano
    country_id: 161
    country_code: NG
    country_name: Nigeria
    latitude: 12.3
    longitude: 7.98333333
    wikiDataId: Q7849383
  - id: 409
    name: Tudun Wada
    state_id: 300
    state_code: KN
    state_name: Kano
    country_id: 161
    country_code: NG
    country_name: Nigeria
    latitude: 11.25
    longitude: 8.4
    wikiDataId: Q7851355
  - id: 410
    name: Ungogo
    state_id: 300
    state_code: KN
    state_name: Kano
    country_id: 161
    country_code: NG
    country_name: Nigeria
    latitude: 12.09055556
    longitude: 8.49666667
    wikiDataId: Q3510251
  - id: 411
    name: Warawa
    state_id: 300
    state_code: KN
    state_name: Kano
    country_id: 161
    country_code: NG
    country_name: Nigeria
    latitude: 11.88333333
    longitude: 8.68333333
    wikiDataId: Q7968824
  - id: 412
    name: Wudil
    state_id: 300
    state_code: KN
    state_name: Kano
    country_id: 161
    country_code: NG
    country_name: Nigeria
    latitude: 11.81666667
    longitude: 8.85
    wikiDataId: Q8039048
  - id: 413
    name: kumbotso
    state_id: 300
    state_code: KN
    state_name: Kano
    country_id: 161
    country_code: NG
    country_name: Nigeria
    latitude: 11.88805556
    longitude: 8.50277778
    wikiDataId: Q6443769
